[{"pk": 1, "model": "dasa.diplomaticletterlocation", "fields": {"city": "Aceh", "reference": "", "region": "Sumatra", "city_alternative_name2": "", "longitude": 95.316686, "continent": "South East Asia", "region_altenative_name": "", "place": "Dar-ud Dunia", "latitude": 5.553926, "exact": "Y", "city_alternative_name3": "", "city_alternative_name": "Banda Aceh"}}, {"pk": 2, "model": "dasa.diplomaticletterlocation", "fields": {"city": "Addis Ababa", "reference": "", "region": "Ethiopia", "city_alternative_name2": "", "longitude": 38.747932, "continent": "Africa", "region_altenative_name": "Abyssinia", "place": "", "latitude": 8.988611, "exact": "N", "city_alternative_name3": "", "city_alternative_name": ""}}, {"pk": 3, "model": "dasa.diplomaticletterlocation", "fields": {"city": "Adonara", "reference": "", "region": "West- and East Nusa Tenggara", "city_alternative_name2": "", "longitude": 123.153253, "continent": "South East Asia", "region_altenative_name": "Adonara", "place": "", "latitude": -8.252107, "exact": "Y", "city_alternative_name3": "", "city_alternative_name": ""}}, {"pk": 4, "model": "dasa.diplomaticletterlocation", "fields": {"city": "Agra", "reference": "", "region": "India/Ceylon", "city_alternative_name2": "", "longitude": 78.022113, "continent": "South Asia", "region_altenative_name": "", "place": "", "latitude": 27.180145, "exact": "Y", "city_alternative_name3": "", "city_alternative_name": ""}}, {"pk": 5, "model": "dasa.diplomaticletterlocation", "fields": {"city": "Ahmedabad", "reference": "", "region": "India/Ceylon", "city_alternative_name2": "", "longitude": 72.579742, "continent": "South Asia", "region_altenative_name": "Gujarat", "place": "", "latitude": 23.020345, "exact": "Y", "city_alternative_name3": "", "city_alternative_name": "Amdavad"}}, {"pk": 6, "model": "dasa.diplomaticletterlocation", "fields": {"city": "Ainara", "reference": "Unknown", "region": "Timor", "city_alternative_name2": "", "longitude": 124.251251, "continent": "South East Asia", "region_altenative_name": "", "place": "", "latitude": -9.404355, "exact": "N", "city_alternative_name3": "", "city_alternative_name": ""}}, {"pk": 7, "model": "dasa.diplomaticletterlocation", "fields": {"city": "Amabi", "reference": "", "region": "Timor", "city_alternative_name2": "", "longitude": 123.620389, "continent": "South East Asia", "region_altenative_name": "", "place": "", "latitude": -10.177692, "exact": "Y", "city_alternative_name3": "", "city_alternative_name": ""}}, {"pk": 8, "model": "dasa.diplomaticletterlocation", "fields": {"city": "Amakono", "reference": "", "region": "Timor", "city_alternative_name2": "", "longitude": 124.273567, "continent": "South East Asia", "region_altenative_name": "", "place": "", "latitude": -9.860966, "exact": "N", "city_alternative_name3": "", "city_alternative_name": ""}}, {"pk": 9, "model": "dasa.diplomaticletterlocation", "fields": {"city": "Amanatun", "reference": "", "region": "Timor", "city_alternative_name2": "", "longitude": 124.630337, "continent": "South East Asia", "region_altenative_name": "", "place": "", "latitude": -9.83768, "exact": "N", "city_alternative_name3": "", "city_alternative_name": "Onam"}}, {"pk": 10, "model": "dasa.diplomaticletterlocation", "fields": {"city": "Amanuban", "reference": "", "region": "Timor", "city_alternative_name2": "", "longitude": 124.520232, "continent": "South East Asia", "region_altenative_name": "", "place": "", "latitude": -9.794493, "exact": "N", "city_alternative_name3": "", "city_alternative_name": ""}}, {"pk": 11, "model": "dasa.diplomaticletterlocation", "fields": {"city": "Amarasi", "reference": "", "region": "Timor", "city_alternative_name2": "", "longitude": 123.874615, "continent": "South East Asia", "region_altenative_name": "", "place": "", "latitude": -10.213187, "exact": "N", "city_alternative_name3": "", "city_alternative_name": ""}}, {"pk": 12, "model": "dasa.diplomaticletterlocation", "fields": {"city": "Ambenu", "reference": "", "region": "Timor", "city_alternative_name2": "", "longitude": 124.06723, "continent": "South East Asia", "region_altenative_name": "", "place": "", "latitude": -9.612936, "exact": "N", "city_alternative_name3": "", "city_alternative_name": ""}}, {"pk": 13, "model": "dasa.diplomaticletterlocation", "fields": {"city": "Ambon", "reference": "", "region": "Moluccas", "city_alternative_name2": "", "longitude": 128.226926, "continent": "South East Asia", "region_altenative_name": "", "place": "", "latitude": -3.680532, "exact": "N", "city_alternative_name3": "", "city_alternative_name": "Kampung Batu Merah"}}, {"pk": 14, "model": "dasa.diplomaticletterlocation", "fields": {"city": "Amfoan", "reference": "", "region": "Timor", "city_alternative_name2": "", "longitude": 124.192028, "continent": "South East Asia", "region_altenative_name": "", "place": "", "latitude": -9.734944, "exact": "N", "city_alternative_name3": "", "city_alternative_name": ""}}, {"pk": 15, "model": "dasa.diplomaticletterlocation", "fields": {"city": "Amoy", "reference": "", "region": "China", "city_alternative_name2": "", "longitude": 118.109207, "continent": "East Asia", "region_altenative_name": "", "place": "", "latitude": 24.479198, "exact": "N", "city_alternative_name3": "", "city_alternative_name": "Xiamen"}}, {"pk": 16, "model": "dasa.diplomaticletterlocation", "fields": {"city": "Annam", "reference": "", "region": "Vietnam", "city_alternative_name2": "", "longitude": 106.471367, "continent": "South East Asia", "region_altenative_name": "", "place": "", "latitude": 16.697607, "exact": "N", "city_alternative_name3": "", "city_alternative_name": "Cochinchina"}}, {"pk": 17, "model": "dasa.diplomaticletterlocation", "fields": {"city": "Anping", "reference": "", "region": "Taiwan", "city_alternative_name2": "", "longitude": 120.165341, "continent": "European Settlement", "region_altenative_name": "", "place": "Fort Zeelandia", "latitude": 22.993703, "exact": "y", "city_alternative_name3": "", "city_alternative_name": "Tainan"}}, {"pk": 18, "model": "dasa.diplomaticletterlocation", "fields": {"city": "Arau Wukan", "reference": "Unkown", "region": "Java", "city_alternative_name2": "", "longitude": 106.845598, "continent": "South East Asia", "region_altenative_name": "", "place": "", "latitude": -6.208763, "exact": "N", "city_alternative_name3": "", "city_alternative_name": ""}}, {"pk": 19, "model": "dasa.diplomaticletterlocation", "fields": {"city": "Asilulu", "reference": "", "region": "Moluccas", "city_alternative_name2": "", "longitude": 128.084301, "continent": "South East Asia", "region_altenative_name": "Ambon", "place": "", "latitude": -3.610288, "exact": "N", "city_alternative_name3": "", "city_alternative_name": ""}}, {"pk": 20, "model": "dasa.diplomaticletterlocation", "fields": {"city": "Atsabe", "reference": "", "region": "Timor", "city_alternative_name2": "", "longitude": 125.39786, "continent": "South East Asia", "region_altenative_name": "", "place": "", "latitude": -8.924788, "exact": "N", "city_alternative_name3": "", "city_alternative_name": ""}}, {"pk": 21, "model": "dasa.diplomaticletterlocation", "fields": {"city": "Ayer Banggi", "reference": "Unknown", "region": "Sumatra", "city_alternative_name2": "", "longitude": 100.827392, "continent": "South East Asia", "region_altenative_name": "", "place": "", "latitude": -1.350464, "exact": "N", "city_alternative_name3": "", "city_alternative_name": ""}}, {"pk": 22, "model": "dasa.diplomaticletterlocation", "fields": {"city": "Ayutthaya", "reference": "", "region": "Thailand", "city_alternative_name2": "", "longitude": 100.5834, "continent": "South East Asia", "region_altenative_name": "Siam", "place": "Ayutthaya Historical Park/King Narai's Palace", "latitude": 14.3499, "exact": "Y", "city_alternative_name3": "", "city_alternative_name": ""}}, {"pk": 23, "model": "dasa.diplomaticletterlocation", "fields": {"city": "Ba\u00e4", "reference": "Geodata unreliable", "region": "West- and East Nusa Tenggara", "city_alternative_name2": "", "longitude": 123.045651, "continent": "South East Asia", "region_altenative_name": "Rote", "place": "", "latitude": -10.727367, "exact": "N", "city_alternative_name3": "", "city_alternative_name": ""}}, {"pk": 24, "model": "dasa.diplomaticletterlocation", "fields": {"city": "Babakan", "reference": "", "region": "Java/Bali", "city_alternative_name2": "", "longitude": 107.419594, "continent": "South East Asia", "region_altenative_name": "", "place": "", "latitude": -6.374541, "exact": "Y", "city_alternative_name3": "", "city_alternative_name": ""}}, {"pk": 25, "model": "dasa.diplomaticletterlocation", "fields": {"city": "Bacan", "reference": "", "region": "Moluccas", "city_alternative_name2": "", "longitude": 127.481427, "continent": "South East Asia", "region_altenative_name": "", "place": "Keraton Sultan Bacan,  Labuha (original palace destroyed)", "latitude": -0.625285, "exact": "Y", "city_alternative_name3": "", "city_alternative_name": ""}}, {"pk": 26, "model": "dasa.diplomaticletterlocation", "fields": {"city": "Badung", "reference": "", "region": "Java/Bali", "city_alternative_name2": "", "longitude": 115.167543, "continent": "South East Asia", "region_altenative_name": "", "place": "", "latitude": -8.545585, "exact": "Y", "city_alternative_name3": "", "city_alternative_name": "Denpasar"}}, {"pk": 27, "model": "dasa.diplomaticletterlocation", "fields": {"city": "Bali", "reference": "", "region": "Java/Bali", "city_alternative_name2": "", "longitude": 115.403333, "continent": "South East Asia", "region_altenative_name": "", "place": "Klungkung Palace", "latitude": -8.535555, "exact": "Y", "city_alternative_name3": "", "city_alternative_name": "Klungkung"}}, {"pk": 28, "model": "dasa.diplomaticletterlocation", "fields": {"city": "Banda Neira", "reference": "", "region": "Moluccas", "city_alternative_name2": "", "longitude": 129.898895, "continent": "South East Asia", "region_altenative_name": "", "place": "Fort Belgica", "latitude": -4.526134, "exact": "Y", "city_alternative_name3": "", "city_alternative_name": ""}}, {"pk": 29, "model": "dasa.diplomaticletterlocation", "fields": {"city": "Bandar Abbas", "reference": "", "region": "Persia", "city_alternative_name2": "", "longitude": 56.266645, "continent": "South Asia", "region_altenative_name": "", "place": "", "latitude": 27.183222, "exact": "N", "city_alternative_name3": "", "city_alternative_name": "Gamron"}}, {"pk": 30, "model": "dasa.diplomaticletterlocation", "fields": {"city": "Bandar Khalipah", "reference": "", "region": "Sumatra", "city_alternative_name2": "", "longitude": 99.2618934, "continent": "South East Asia", "region_altenative_name": "", "place": "", "latitude": 3.4210076, "exact": "Y", "city_alternative_name3": "", "city_alternative_name": ""}}, {"pk": 31, "model": "dasa.diplomaticletterlocation", "fields": {"city": "Bandung", "reference": "", "region": "Java/Bali", "city_alternative_name2": "", "longitude": 107.608975, "continent": "South East Asia", "region_altenative_name": "", "place": "Krapyak or Citeureup", "latitude": -6.913705, "exact": "Y", "city_alternative_name3": "", "city_alternative_name": ""}}, {"pk": 32, "model": "dasa.diplomaticletterlocation", "fields": {"city": "Bangil", "reference": "", "region": "Java/Bali", "city_alternative_name2": "", "longitude": 112.785433, "continent": "South East Asia", "region_altenative_name": "", "place": "Pendopo Bangil", "latitude": -7.59795, "exact": "Y", "city_alternative_name3": "", "city_alternative_name": "Pasuruan"}}, {"pk": 33, "model": "dasa.diplomaticletterlocation", "fields": {"city": "Bangka", "reference": "", "region": "Sumatra", "city_alternative_name2": "", "longitude": 106.472536, "continent": "South East Asia", "region_altenative_name": "", "place": "Benteng Toboali", "latitude": -2.924668, "exact": "Y", "city_alternative_name3": "", "city_alternative_name": "Banka"}}, {"pk": 34, "model": "dasa.diplomaticletterlocation", "fields": {"city": "Bangkalan", "reference": "", "region": "Java/Bali", "city_alternative_name2": "", "longitude": 112.735404, "continent": "South East Asia", "region_altenative_name": "Madura", "place": "Pendopo Bangkalan/Museum Cakraningrat", "latitude": -7.048284, "exact": "Y", "city_alternative_name3": "", "city_alternative_name": ""}}, {"pk": 35, "model": "dasa.diplomaticletterlocation", "fields": {"city": "Bangkok", "reference": "", "region": "Thailand", "city_alternative_name2": "", "longitude": 100.491268, "continent": "South East Asia", "region_altenative_name": "Siam", "place": "Grand Palace/Phra Borom Maha Ratcha Wang", "latitude": 13.752414, "exact": "Y", "city_alternative_name3": "", "city_alternative_name": ""}}, {"pk": 36, "model": "dasa.diplomaticletterlocation", "fields": {"city": "Bani Bani", "reference": "", "region": "Timor", "city_alternative_name2": "", "longitude": 124.771317, "continent": "South East Asia", "region_altenative_name": "", "place": "", "latitude": -9.53441, "exact": "N", "city_alternative_name3": "", "city_alternative_name": ""}}, {"pk": 37, "model": "dasa.diplomaticletterlocation", "fields": {"city": "Banjarmasin", "reference": "", "region": "Borneo", "city_alternative_name2": "", "longitude": 114.590469, "continent": "South East Asia", "region_altenative_name": "Banjar", "place": "Kayu Tangi", "latitude": -3.301954, "exact": "Y", "city_alternative_name3": "", "city_alternative_name": ""}}, {"pk": 38, "model": "dasa.diplomaticletterlocation", "fields": {"city": "Banten", "reference": "", "region": "Java/Bali", "city_alternative_name2": "", "longitude": 106.155735, "continent": "South East Asia", "region_altenative_name": "", "place": "Surosowan\u00a0Palace", "latitude": -6.0382, "exact": "Y", "city_alternative_name3": "", "city_alternative_name": ""}}, {"pk": 39, "model": "dasa.diplomaticletterlocation", "fields": {"city": "Barus", "reference": "", "region": "Sumatra", "city_alternative_name2": "", "longitude": 98.398757, "continent": "South East Asia", "region_altenative_name": "", "place": "Gedung Putih', Istana Barus, Kampung Barus (exact location unknown)", "latitude": 2.011143, "exact": "Y", "city_alternative_name3": "", "city_alternative_name": ""}}, {"pk": 40, "model": "dasa.diplomaticletterlocation", "fields": {"city": "Batang", "reference": "", "region": "Java/Bali", "city_alternative_name2": "", "longitude": 109.72525, "continent": "South East Asia", "region_altenative_name": "", "place": "", "latitude": -6.895593, "exact": "Y", "city_alternative_name3": "", "city_alternative_name": ""}}, {"pk": 41, "model": "dasa.diplomaticletterlocation", "fields": {"city": "Batavia", "reference": "destroyed; currently 'Batavia City Wall'", "region": "Java/Bali", "city_alternative_name2": "", "longitude": 106.81379, "continent": "South East Asia", "region_altenative_name": "", "place": "Castle of Batavia", "latitude": -6.129244, "exact": "Y", "city_alternative_name3": "", "city_alternative_name": ""}}, {"pk": 42, "model": "dasa.diplomaticletterlocation", "fields": {"city": "Batu Daya", "reference": "", "region": "Borneo", "city_alternative_name2": "", "longitude": 110.324525, "continent": "South East Asia", "region_altenative_name": "", "place": "", "latitude": -0.860638, "exact": "Y", "city_alternative_name3": "", "city_alternative_name": ""}}, {"pk": 43, "model": "dasa.diplomaticletterlocation", "fields": {"city": "Batubara", "reference": "Unknown", "region": "Timor", "city_alternative_name2": "", "longitude": 123.620495, "continent": "South East Asia", "region_altenative_name": "", "place": "", "latitude": -10.156895, "exact": "N", "city_alternative_name3": "", "city_alternative_name": ""}}, {"pk": 44, "model": "dasa.diplomaticletterlocation", "fields": {"city": "Batuisi", "reference": "Geodata unreliable", "region": "West- and East Nusa Tenggara", "city_alternative_name2": "", "longitude": 123.425748, "continent": "South East Asia", "region_altenative_name": "Rote", "place": "", "latitude": -10.625369, "exact": "N", "city_alternative_name3": "", "city_alternative_name": "Batuissi"}}, {"pk": 45, "model": "dasa.diplomaticletterlocation", "fields": {"city": "Bayang", "reference": "", "region": "Sumatra", "city_alternative_name2": "", "longitude": 100.535264, "continent": "South East Asia", "region_altenative_name": "", "place": "", "latitude": -1.26761, "exact": "Y", "city_alternative_name3": "", "city_alternative_name": ""}}, {"pk": 46, "model": "dasa.diplomaticletterlocation", "fields": {"city": "Beijing", "reference": "", "region": "China", "city_alternative_name2": "", "longitude": 116.397032, "continent": "East Asia", "region_altenative_name": "", "place": "Forbidden city", "latitude": 39.917906, "exact": "Y", "city_alternative_name3": "", "city_alternative_name": ""}}, {"pk": 47, "model": "dasa.diplomaticletterlocation", "fields": {"city": "Bekasi", "reference": "", "region": "Java/Bali", "city_alternative_name2": "", "longitude": 106.997507, "continent": "South East Asia", "region_altenative_name": "", "place": "", "latitude": -6.25036, "exact": "Y", "city_alternative_name3": "", "city_alternative_name": ""}}, {"pk": 48, "model": "dasa.diplomaticletterlocation", "fields": {"city": "Bengal", "reference": "", "region": "", "city_alternative_name2": "", "longitude": 88.335878, "continent": "European Settlement", "region_altenative_name": "", "place": "Fort William", "latitude": 22.554373, "exact": "Y", "city_alternative_name3": "", "city_alternative_name": ""}}, {"pk": 49, "model": "dasa.diplomaticletterlocation", "fields": {"city": "Benkulu", "reference": "", "region": "Sumatra", "city_alternative_name2": "Bengkulen", "longitude": 102.251756, "continent": "South East Asia", "region_altenative_name": "", "place": "Fort Marlborough", "latitude": -3.787025, "exact": "Y", "city_alternative_name3": "Benkoelen", "city_alternative_name": "Bencoolen"}}, {"pk": 50, "model": "dasa.diplomaticletterlocation", "fields": {"city": "Bijapur", "reference": "", "region": "India/Ceylon", "city_alternative_name2": "", "longitude": 75.709898, "continent": "South Asia", "region_altenative_name": "", "place": "Fort Bijapur", "latitude": 16.830869, "exact": "Y", "city_alternative_name3": "", "city_alternative_name": "Vijayapura"}}, {"pk": 51, "model": "dasa.diplomaticletterlocation", "fields": {"city": "Bilba", "reference": "Geodata unreliable", "region": "West- and East Nusa Tenggara", "city_alternative_name2": "", "longitude": 123.435152, "continent": "South East Asia", "region_altenative_name": "Rote", "place": "", "latitude": -10.501412, "exact": "N", "city_alternative_name3": "", "city_alternative_name": ""}}, {"pk": 52, "model": "dasa.diplomaticletterlocation", "fields": {"city": "Bima", "reference": "", "region": "West- and East Nusa Tenggara", "city_alternative_name2": "", "longitude": 118.770832, "continent": "South East Asia", "region_altenative_name": "", "place": "Istana Sultan Bima", "latitude": -8.458988, "exact": "N", "city_alternative_name3": "", "city_alternative_name": ""}}, {"pk": 53, "model": "dasa.diplomaticletterlocation", "fields": {"city": "Bintanganteng", "reference": "Geodata unreliable", "region": "Sumatra", "city_alternative_name2": "", "longitude": 102.456695, "continent": "South East Asia", "region_altenative_name": "", "place": "", "latitude": -1.430943, "exact": "N", "city_alternative_name3": "", "city_alternative_name": ""}}, {"pk": 54, "model": "dasa.diplomaticletterlocation", "fields": {"city": "Blambangan", "reference": "", "region": "Java/Bali", "city_alternative_name2": "", "longitude": 114.363104, "continent": "South East Asia", "region_altenative_name": "", "place": "", "latitude": -8.225677, "exact": "N", "city_alternative_name3": "", "city_alternative_name": "Banyuwangi"}}, {"pk": 55, "model": "dasa.diplomaticletterlocation", "fields": {"city": "Bojong Lopang", "reference": "", "region": "Java/Bali", "city_alternative_name2": "", "longitude": 106.864328, "continent": "South East Asia", "region_altenative_name": "", "place": "", "latitude": -7.054401, "exact": "Y", "city_alternative_name3": "", "city_alternative_name": ""}}, {"pk": 56, "model": "dasa.diplomaticletterlocation", "fields": {"city": "Bokai", "reference": "Geodata unreliable", "region": "West- and East Nusa Tenggara", "city_alternative_name2": "", "longitude": 123.243041, "continent": "South East Asia", "region_altenative_name": "Rote", "place": "", "latitude": -10.742694, "exact": "N", "city_alternative_name3": "", "city_alternative_name": ""}}, {"pk": 57, "model": "dasa.diplomaticletterlocation", "fields": {"city": "Bone", "reference": "", "region": "Sulawesi", "city_alternative_name2": "", "longitude": 120.324997, "continent": "South East Asia", "region_altenative_name": "", "place": "", "latitude": -4.538684, "exact": "N", "city_alternative_name3": "", "city_alternative_name": ""}}, {"pk": 58, "model": "dasa.diplomaticletterlocation", "fields": {"city": "Brebes", "reference": "", "region": "Java/Bali", "city_alternative_name2": "", "longitude": 109.05037, "continent": "South East Asia", "region_altenative_name": "", "place": "", "latitude": -6.880946, "exact": "Y", "city_alternative_name3": "", "city_alternative_name": ""}}, {"pk": 59, "model": "dasa.diplomaticletterlocation", "fields": {"city": "Buleleng", "reference": "http://www.bali3d.com/royal-palace-singaraja-bali.php", "region": "Java/Bali", "city_alternative_name2": "", "longitude": 115.096496, "continent": "South East Asia", "region_altenative_name": "", "place": "Puri Singaraja", "latitude": -8.124726, "exact": "Y", "city_alternative_name3": "", "city_alternative_name": "Singaraja"}}, {"pk": 60, "model": "dasa.diplomaticletterlocation", "fields": {"city": "Bulungan", "reference": "", "region": "Borneo", "city_alternative_name2": "", "longitude": 117.403113, "continent": "South East Asia", "region_altenative_name": "", "place": "Istana Bulungan", "latitude": 2.838388, "exact": "Y", "city_alternative_name3": "", "city_alternative_name": ""}}, {"pk": 61, "model": "dasa.diplomaticletterlocation", "fields": {"city": "Buton", "reference": "", "region": "Sulawesi", "city_alternative_name2": "", "longitude": 122.602196, "continent": "South East Asia", "region_altenative_name": "", "place": "Benteng Keraton Buton", "latitude": -5.473871, "exact": "Y", "city_alternative_name3": "", "city_alternative_name": ""}}, {"pk": 62, "model": "dasa.diplomaticletterlocation", "fields": {"city": "Cairo", "reference": "", "region": "Egypt", "city_alternative_name2": "", "longitude": 31.259968, "continent": "Africa", "region_altenative_name": "", "place": "Saladin Citadel of Cairo", "latitude": 30.026608, "exact": "Y", "city_alternative_name3": "", "city_alternative_name": ""}}, {"pk": 63, "model": "dasa.diplomaticletterlocation", "fields": {"city": "Calicut", "reference": "", "region": "India/Ceylon", "city_alternative_name2": "", "longitude": 75.779144, "continent": "South Asia", "region_altenative_name": "Malabar (Kerala)", "place": "Calicut Vikramapuram Palace", "latitude": 11.253918, "exact": "Y", "city_alternative_name3": "", "city_alternative_name": "Kozhikode"}}, {"pk": 64, "model": "dasa.diplomaticletterlocation", "fields": {"city": "Canton", "reference": "", "region": "China", "city_alternative_name2": "", "longitude": 113.227844, "continent": "East Asia", "region_altenative_name": "", "place": "", "latitude": 23.125598, "exact": "N", "city_alternative_name3": "", "city_alternative_name": "Guagnzhou"}}, {"pk": 65, "model": "dasa.diplomaticletterlocation", "fields": {"city": "Cape of Good Hope", "reference": "The castle was were most political exiles were kept", "region": "South Africa", "city_alternative_name2": "", "longitude": 18.427623, "continent": "Africa", "region_altenative_name": "", "place": "Castle of Good Hope", "latitude": -33.925869, "exact": "Y", "city_alternative_name3": "", "city_alternative_name": ""}}, {"pk": 66, "model": "dasa.diplomaticletterlocation", "fields": {"city": "Cengkalsewu", "reference": "", "region": "Java/Bali", "city_alternative_name2": "", "longitude": 110.953644, "continent": "South East Asia", "region_altenative_name": "Pati", "place": "", "latitude": -6.903166, "exact": "N", "city_alternative_name3": "", "city_alternative_name": ""}}, {"pk": 67, "model": "dasa.diplomaticletterlocation", "fields": {"city": "Chi Engling", "reference": "Geodata unreliable", "region": "China", "city_alternative_name2": "", "longitude": 116.626946, "continent": "East Asia", "region_altenative_name": "", "place": "", "latitude": 23.646272, "exact": "N", "city_alternative_name3": "", "city_alternative_name": ""}}, {"pk": 68, "model": "dasa.diplomaticletterlocation", "fields": {"city": "Ciamis", "reference": "", "region": "Java/Bali", "city_alternative_name2": "", "longitude": 108.354119, "continent": "South East Asia", "region_altenative_name": "", "place": "Pendopo Bupati Ciamis", "latitude": -7.326712, "exact": "Y", "city_alternative_name3": "", "city_alternative_name": ""}}, {"pk": 69, "model": "dasa.diplomaticletterlocation", "fields": {"city": "Cianjur", "reference": "", "region": "Java/Bali", "city_alternative_name2": "", "longitude": 107.139569, "continent": "South East Asia", "region_altenative_name": "", "place": "Pendopo Bupati Cianjur", "latitude": -6.821763, "exact": "Y", "city_alternative_name3": "", "city_alternative_name": ""}}, {"pk": 70, "model": "dasa.diplomaticletterlocation", "fields": {"city": "Ciasem", "reference": "", "region": "Java/Bali", "city_alternative_name2": "", "longitude": 107.664891, "continent": "South East Asia", "region_altenative_name": "", "place": "Kantor Camat Ciasem", "latitude": -6.338986, "exact": "Y", "city_alternative_name3": "", "city_alternative_name": ""}}, {"pk": 71, "model": "dasa.diplomaticletterlocation", "fields": {"city": "Cibalagung", "reference": "", "region": "Java/Bali", "city_alternative_name2": "", "longitude": 107.203227, "continent": "South East Asia", "region_altenative_name": "", "place": "Pendopo/Kraton Cibalagung", "latitude": -6.768939, "exact": "Y", "city_alternative_name3": "", "city_alternative_name": ""}}, {"pk": 72, "model": "dasa.diplomaticletterlocation", "fields": {"city": "Cigalugur", "reference": "", "region": "Java/Bali", "city_alternative_name2": "", "longitude": 108.195702, "continent": "South East Asia", "region_altenative_name": "", "place": "", "latitude": -7.280638, "exact": "Y", "city_alternative_name3": "", "city_alternative_name": ""}}, {"pk": 73, "model": "dasa.diplomaticletterlocation", "fields": {"city": "Cikondang", "reference": "", "region": "Java/Bali", "city_alternative_name2": "", "longitude": 107.869212, "continent": "South East Asia", "region_altenative_name": "", "place": "", "latitude": -7.584982, "exact": "Y", "city_alternative_name3": "", "city_alternative_name": ""}}, {"pk": 74, "model": "dasa.diplomaticletterlocation", "fields": {"city": "Cileungsi", "reference": "Written as Selincin or even Kelinci (in Dutch: Celinci or Celincin), which means bunny.", "region": "Java/Bali", "city_alternative_name2": "", "longitude": 107.001742, "continent": "South East Asia", "region_altenative_name": "", "place": "", "latitude": -6.412978, "exact": "Y", "city_alternative_name3": "", "city_alternative_name": ""}}, {"pk": 75, "model": "dasa.diplomaticletterlocation", "fields": {"city": "Cirebon", "reference": "", "region": "Java/Bali", "city_alternative_name2": "", "longitude": 108.570852, "continent": "South East Asia", "region_altenative_name": "", "place": "Keraton Kasepuhan", "latitude": -6.725899, "exact": "Y", "city_alternative_name3": "", "city_alternative_name": ""}}, {"pk": 76, "model": "dasa.diplomaticletterlocation", "fields": {"city": "Colombo", "reference": "The fort is destroyed, prisoners and exiles were kept there", "region": "India/Ceylon", "city_alternative_name2": "", "longitude": 79.868287, "continent": "South Asia", "region_altenative_name": "", "place": "Fort Kalutara", "latitude": 6.925109, "exact": "Y", "city_alternative_name3": "", "city_alternative_name": ""}}, {"pk": 77, "model": "dasa.diplomaticletterlocation", "fields": {"city": "Cotabato", "reference": "", "region": "Philippines", "city_alternative_name2": "", "longitude": 125.038391, "continent": "South Asia", "region_altenative_name": "", "place": "", "latitude": 7.012007, "exact": "N", "city_alternative_name3": "", "city_alternative_name": ""}}, {"pk": 78, "model": "dasa.diplomaticletterlocation", "fields": {"city": "Cranganore", "reference": "", "region": "India/Ceylon", "city_alternative_name2": "", "longitude": 76.198318, "continent": "South Asia", "region_altenative_name": "", "place": "", "latitude": 10.219229, "exact": "N", "city_alternative_name3": "", "city_alternative_name": "Kodungallur"}}, {"pk": 79, "model": "dasa.diplomaticletterlocation", "fields": {"city": "Damar Besar", "reference": "Also known as Damar Edam", "region": "Java/Bali", "city_alternative_name2": "", "longitude": 106.842213, "continent": "South East Asia", "region_altenative_name": "", "place": "Dutch defence system at Damar Island", "latitude": -5.95679, "exact": "Y", "city_alternative_name3": "", "city_alternative_name": "Damar Tengah"}}, {"pk": 80, "model": "dasa.diplomaticletterlocation", "fields": {"city": "Dansburgh", "reference": "", "region": "", "city_alternative_name2": "", "longitude": 79.853043, "continent": "European Settlement", "region_altenative_name": "", "place": "", "latitude": 11.030633, "exact": "Y", "city_alternative_name3": "", "city_alternative_name": "Dansborg"}}, {"pk": 81, "model": "dasa.diplomaticletterlocation", "fields": {"city": "Deccan Plateau", "reference": "", "region": "India/Ceylon", "city_alternative_name2": "", "longitude": 76.999866, "continent": "South Asia", "region_altenative_name": "", "place": "", "latitude": 14.042339, "exact": "N", "city_alternative_name3": "", "city_alternative_name": "Decca"}}, {"pk": 82, "model": "dasa.diplomaticletterlocation", "fields": {"city": "Delhi", "reference": "", "region": "India/Ceylon", "city_alternative_name2": "", "longitude": 77.230212, "continent": "South Asia", "region_altenative_name": "Mughal Empire", "place": "Red Fort", "latitude": 28.654779, "exact": "Y", "city_alternative_name3": "", "city_alternative_name": "Mughal Court"}}, {"pk": 83, "model": "dasa.diplomaticletterlocation", "fields": {"city": "Demak", "reference": "", "region": "Java/Bali", "city_alternative_name2": "", "longitude": 110.640905, "continent": "South East Asia", "region_altenative_name": "", "place": "Pendopo Demak", "latitude": -6.89031, "exact": "Y", "city_alternative_name3": "", "city_alternative_name": ""}}, {"pk": 84, "model": "dasa.diplomaticletterlocation", "fields": {"city": "Demung", "reference": "", "region": "Java/Bali", "city_alternative_name2": "", "longitude": 113.697701, "continent": "South East Asia", "region_altenative_name": "", "place": "", "latitude": -7.752522, "exact": "Y", "city_alternative_name3": "", "city_alternative_name": "Besuki"}}, {"pk": 85, "model": "dasa.diplomaticletterlocation", "fields": {"city": "Dengka", "reference": "Geodata unreliable", "region": "West- and East Nusa Tenggara", "city_alternative_name2": "", "longitude": 122.905866, "continent": "South East Asia", "region_altenative_name": "Rote", "place": "", "latitude": -10.786585, "exact": "N", "city_alternative_name3": "", "city_alternative_name": ""}}, {"pk": 86, "model": "dasa.diplomaticletterlocation", "fields": {"city": "Dhaka", "reference": "", "region": "India/Ceylon", "city_alternative_name2": "", "longitude": 90.410743, "continent": "South Asia", "region_altenative_name": "", "place": "Comptoir", "latitude": 23.805297, "exact": "Y", "city_alternative_name3": "", "city_alternative_name": ""}}, {"pk": 87, "model": "dasa.diplomaticletterlocation", "fields": {"city": "Dirma", "reference": "", "region": "Timor", "city_alternative_name2": "", "longitude": 124.784088, "continent": "South East Asia", "region_altenative_name": "", "place": "", "latitude": -9.558771, "exact": "N", "city_alternative_name3": "", "city_alternative_name": ""}}, {"pk": 88, "model": "dasa.diplomaticletterlocation", "fields": {"city": "Diu", "reference": "Geodata unreliable", "region": "West- and East Nusa Tenggara", "city_alternative_name2": "", "longitude": 123.311598, "continent": "South East Asia", "region_altenative_name": "Rote", "place": "", "latitude": -10.667579, "exact": "N", "city_alternative_name3": "", "city_alternative_name": ""}}, {"pk": 89, "model": "dasa.diplomaticletterlocation", "fields": {"city": "Dompu", "reference": "", "region": "West- and East Nusa Tenggara", "city_alternative_name2": "", "longitude": 118.476064, "continent": "South East Asia", "region_altenative_name": "", "place": "Pendopo Dompu (new)", "latitude": -8.50444, "exact": "Y", "city_alternative_name3": "", "city_alternative_name": ""}}, {"pk": 90, "model": "dasa.diplomaticletterlocation", "fields": {"city": "Edo", "reference": "", "region": "Japan", "city_alternative_name2": "", "longitude": 139.731674, "continent": "East Asia", "region_altenative_name": "", "place": "Edo Castle", "latitude": 35.722136, "exact": "Y", "city_alternative_name3": "", "city_alternative_name": "Tokyo"}}, {"pk": 91, "model": "dasa.diplomaticletterlocation", "fields": {"city": "Empat Suku", "reference": "Unknown but in Padang", "region": "Sumatra", "city_alternative_name2": "", "longitude": 100.448554, "continent": "South East Asia", "region_altenative_name": "", "place": "", "latitude": -0.904774, "exact": "N", "city_alternative_name3": "", "city_alternative_name": ""}}, {"pk": 92, "model": "dasa.diplomaticletterlocation", "fields": {"city": "Ende", "reference": "", "region": "West- and East Nusa Tenggara", "city_alternative_name2": "", "longitude": 121.07937, "continent": "South East Asia", "region_altenative_name": "Flores", "place": "", "latitude": -8.657382, "exact": "N", "city_alternative_name3": "", "city_alternative_name": ""}}, {"pk": 93, "model": "dasa.diplomaticletterlocation", "fields": {"city": "Ermera", "reference": "", "region": "Timor", "city_alternative_name2": "", "longitude": 125.396208, "continent": "South East Asia", "region_altenative_name": "", "place": "", "latitude": -8.751857, "exact": "N", "city_alternative_name3": "", "city_alternative_name": "Erimera"}}, {"pk": 94, "model": "dasa.diplomaticletterlocation", "fields": {"city": "Fatuboro", "reference": "", "region": "Timor", "city_alternative_name2": "", "longitude": 125.101312, "continent": "South East Asia", "region_altenative_name": "", "place": "", "latitude": -8.69928, "exact": "N", "city_alternative_name3": "", "city_alternative_name": ""}}, {"pk": 95, "model": "dasa.diplomaticletterlocation", "fields": {"city": "Fialaran", "reference": "", "region": "Timor", "city_alternative_name2": "", "longitude": 124.728836, "continent": "South East Asia", "region_altenative_name": "", "place": "", "latitude": -9.282083, "exact": "N", "city_alternative_name3": "", "city_alternative_name": ""}}, {"pk": 96, "model": "dasa.diplomaticletterlocation", "fields": {"city": "Fort Sindhudurg", "reference": "", "region": "India/Ceylon", "city_alternative_name2": "", "longitude": 73.459599, "continent": "South Asia", "region_altenative_name": "", "place": "Fort Sindhudurg", "latitude": 16.042465, "exact": "Y", "city_alternative_name3": "", "city_alternative_name": ""}}, {"pk": 97, "model": "dasa.diplomaticletterlocation", "fields": {"city": "Funai", "reference": "Currently in Kupang City", "region": "Timor", "city_alternative_name2": "", "longitude": 123.615936, "continent": "South East Asia", "region_altenative_name": "", "place": "", "latitude": -10.189772, "exact": "N", "city_alternative_name3": "", "city_alternative_name": ""}}, {"pk": 98, "model": "dasa.diplomaticletterlocation", "fields": {"city": "Fuzhou", "reference": "See http://www.atlasofmutualheritage.nl/en/location/?id=701", "region": "China", "city_alternative_name2": "", "longitude": 119.31839, "continent": "East Asia", "region_altenative_name": "", "place": "", "latitude": 26.05016, "exact": "N", "city_alternative_name3": "", "city_alternative_name": ""}}, {"pk": 99, "model": "dasa.diplomaticletterlocation", "fields": {"city": "Gabang", "reference": "", "region": "Java/Bali", "city_alternative_name2": "", "longitude": 110.643189, "continent": "South East Asia", "region_altenative_name": "", "place": "", "latitude": -7.601062, "exact": "Y", "city_alternative_name3": "", "city_alternative_name": ""}}, {"pk": 100, "model": "dasa.diplomaticletterlocation", "fields": {"city": "Gelgel", "reference": "", "region": "Java/Bali", "city_alternative_name2": "", "longitude": 115.411838, "continent": "South East Asia", "region_altenative_name": "Bali", "place": "", "latitude": -8.564533, "exact": "N", "city_alternative_name3": "", "city_alternative_name": ""}}, {"pk": 101, "model": "dasa.diplomaticletterlocation", "fields": {"city": "Gemulak", "reference": "", "region": "Java/Bali", "city_alternative_name2": "", "longitude": 110.533623, "continent": "South East Asia", "region_altenative_name": "Semarang", "place": "", "latitude": -6.930499, "exact": "N", "city_alternative_name3": "", "city_alternative_name": ""}}, {"pk": 102, "model": "dasa.diplomaticletterlocation", "fields": {"city": "Gianyar", "reference": "", "region": "Java/Bali", "city_alternative_name2": "", "longitude": 115.331441, "continent": "South East Asia", "region_altenative_name": "", "place": "", "latitude": -8.536715, "exact": "N", "city_alternative_name3": "", "city_alternative_name": ""}}, {"pk": 103, "model": "dasa.diplomaticletterlocation", "fields": {"city": "Gingee", "reference": "", "region": "India/Ceylon", "city_alternative_name2": "", "longitude": 79.411545, "continent": "South Asia", "region_altenative_name": "", "place": "", "latitude": 12.25298, "exact": "Y", "city_alternative_name3": "", "city_alternative_name": ""}}, {"pk": 104, "model": "dasa.diplomaticletterlocation", "fields": {"city": "Goa", "reference": "", "region": "India/Ceylon", "city_alternative_name2": "", "longitude": 73.913709, "continent": "South Asia", "region_altenative_name": "", "place": "Viceroy's Arch, Old Goa", "latitude": 15.505746, "exact": "Y", "city_alternative_name3": "", "city_alternative_name": ""}}, {"pk": 105, "model": "dasa.diplomaticletterlocation", "fields": {"city": "Golconda", "reference": "", "region": "India/Ceylon", "city_alternative_name2": "", "longitude": 78.400972, "continent": "South Asia", "region_altenative_name": "", "place": "Fort Golconda", "latitude": 17.383239, "exact": "Y", "city_alternative_name3": "", "city_alternative_name": "Hyderabad"}}, {"pk": 106, "model": "dasa.diplomaticletterlocation", "fields": {"city": "Gondar", "reference": "", "region": "Ethiopia", "city_alternative_name2": "", "longitude": 37.469666, "continent": "Africa", "region_altenative_name": "Abyssinia", "place": "Fasil Ghebbi", "latitude": 12.608048, "exact": "Y", "city_alternative_name3": "", "city_alternative_name": ""}}, {"pk": 107, "model": "dasa.diplomaticletterlocation", "fields": {"city": "Gorontalo", "reference": "", "region": "Sulawesi", "city_alternative_name2": "", "longitude": 123.006824, "continent": "South East Asia", "region_altenative_name": "", "place": "Otanaha Fortress", "latitude": 0.549243, "exact": "Y", "city_alternative_name3": "", "city_alternative_name": ""}}, {"pk": 108, "model": "dasa.diplomaticletterlocation", "fields": {"city": "Gresik", "reference": "", "region": "Java/Bali", "city_alternative_name2": "", "longitude": 112.655869, "continent": "South East Asia", "region_altenative_name": "", "place": "Pendopo Gresik", "latitude": -7.157863, "exact": "Y", "city_alternative_name3": "", "city_alternative_name": ""}}, {"pk": 109, "model": "dasa.diplomaticletterlocation", "fields": {"city": "Hanoi", "reference": "", "region": "Vietnam", "city_alternative_name2": "", "longitude": 105.853894, "continent": "South East Asia", "region_altenative_name": "", "place": "Ho\u00e0ng Th\u00e0nh Th\u0103ng Long", "latitude": 21.02723, "exact": "Y", "city_alternative_name3": "", "city_alternative_name": "Tonkin"}}, {"pk": 110, "model": "dasa.diplomaticletterlocation", "fields": {"city": "Hirado", "reference": "", "region": "Japan", "city_alternative_name2": "", "longitude": 129.558498, "continent": "East Asia", "region_altenative_name": "", "place": "Hirado Castle", "latitude": 33.36756, "exact": "Y", "city_alternative_name3": "", "city_alternative_name": "Firando"}}, {"pk": 111, "model": "dasa.diplomaticletterlocation", "fields": {"city": "Hitu", "reference": "", "region": "Moluccas", "city_alternative_name2": "", "longitude": 128.135318, "continent": "South East Asia", "region_altenative_name": "", "place": "Thirty villages", "latitude": -3.61248, "exact": "Y", "city_alternative_name3": "", "city_alternative_name": ""}}, {"pk": 112, "model": "dasa.diplomaticletterlocation", "fields": {"city": "Hooghly", "reference": "", "region": "India/Ceylon", "city_alternative_name2": "", "longitude": 88.3712, "continent": "South Asia", "region_altenative_name": "", "place": "", "latitude": 22.902745, "exact": "N", "city_alternative_name3": "", "city_alternative_name": "Hugly"}}, {"pk": 113, "model": "dasa.diplomaticletterlocation", "fields": {"city": "Hunimua", "reference": "", "region": "Moluccas", "city_alternative_name2": "", "longitude": 128.285862, "continent": "South East Asia", "region_altenative_name": "Ambon", "place": "", "latitude": -3.622778, "exact": "N", "city_alternative_name3": "", "city_alternative_name": "Liang Beach"}}, {"pk": 114, "model": "dasa.diplomaticletterlocation", "fields": {"city": "Hyderabad", "reference": "", "region": "India/Ceylon", "city_alternative_name2": "", "longitude": 78.486709, "continent": "South Asia", "region_altenative_name": "", "place": "", "latitude": 17.38134, "exact": "Y", "city_alternative_name3": "", "city_alternative_name": ""}}, {"pk": 115, "model": "dasa.diplomaticletterlocation", "fields": {"city": "Imbanagara", "reference": "", "region": "Java/Bali", "city_alternative_name2": "", "longitude": 108.308316, "continent": "South East Asia", "region_altenative_name": "", "place": "", "latitude": -7.322345, "exact": "Y", "city_alternative_name3": "", "city_alternative_name": ""}}, {"pk": 116, "model": "dasa.diplomaticletterlocation", "fields": {"city": "Inderapura", "reference": "", "region": "Sumatra", "city_alternative_name2": "", "longitude": 100.974426, "continent": "South East Asia", "region_altenative_name": "", "place": "", "latitude": -2.079696, "exact": "Y", "city_alternative_name3": "", "city_alternative_name": "Siak Seri Inderapura"}}, {"pk": 117, "model": "dasa.diplomaticletterlocation", "fields": {"city": "Indragiri", "reference": "See James Bell's A System of Geography, Popular and Scientific Vol. 5; 224", "region": "Sumatra", "city_alternative_name2": "", "longitude": 102.270439, "continent": "South East Asia", "region_altenative_name": "", "place": "", "latitude": -0.493246, "exact": "Y", "city_alternative_name3": "", "city_alternative_name": ""}}, {"pk": 118, "model": "dasa.diplomaticletterlocation", "fields": {"city": "Indramayu", "reference": "", "region": "Java/Bali", "city_alternative_name2": "", "longitude": 108.323034, "continent": "South East Asia", "region_altenative_name": "", "place": "Pendopo Indramayu", "latitude": -6.327103, "exact": "Y", "city_alternative_name3": "", "city_alternative_name": ""}}, {"pk": 119, "model": "dasa.diplomaticletterlocation", "fields": {"city": "Insana", "reference": "", "region": "Timor", "city_alternative_name2": "", "longitude": 124.541761, "continent": "South East Asia", "region_altenative_name": "", "place": "", "latitude": -9.240891, "exact": "N", "city_alternative_name3": "", "city_alternative_name": ""}}, {"pk": 120, "model": "dasa.diplomaticletterlocation", "fields": {"city": "Isfahan", "reference": "", "region": "Persia", "city_alternative_name2": "", "longitude": 51.676619, "continent": "Middle East", "region_altenative_name": "", "place": "\u0100l\u012b Q\u0101p\u016b palace", "latitude": 32.657076, "exact": "Y", "city_alternative_name3": "", "city_alternative_name": ""}}, {"pk": 121, "model": "dasa.diplomaticletterlocation", "fields": {"city": "Jambi", "reference": "Destroyed", "region": "Sumatra", "city_alternative_name2": "", "longitude": 103.616993, "continent": "South East Asia", "region_altenative_name": "", "place": "Kediaman Sultan Jambi, desa Dusun Tengah", "latitude": -1.596415, "exact": "Y", "city_alternative_name3": "", "city_alternative_name": ""}}, {"pk": 122, "model": "dasa.diplomaticletterlocation", "fields": {"city": "Jampang", "reference": "", "region": "Java/Bali", "city_alternative_name2": "", "longitude": 106.65648, "continent": "South East Asia", "region_altenative_name": "", "place": "", "latitude": -6.398795, "exact": "Y", "city_alternative_name3": "", "city_alternative_name": ""}}, {"pk": 123, "model": "dasa.diplomaticletterlocation", "fields": {"city": "Jeddah", "reference": "", "region": "Saudi-Arabia", "city_alternative_name2": "", "longitude": 39.172778, "continent": "Middle East", "region_altenative_name": "", "place": "", "latitude": 21.543333, "exact": "N", "city_alternative_name3": "", "city_alternative_name": ""}}, {"pk": 124, "model": "dasa.diplomaticletterlocation", "fields": {"city": "Jepara", "reference": "", "region": "Java/Bali", "city_alternative_name2": "", "longitude": 110.667909, "continent": "South East Asia", "region_altenative_name": "", "place": "Pendopo Jepara", "latitude": -6.59023, "exact": "Y", "city_alternative_name3": "", "city_alternative_name": ""}}, {"pk": 125, "model": "dasa.diplomaticletterlocation", "fields": {"city": "Jipang", "reference": "", "region": "Java/Bali", "city_alternative_name2": "", "longitude": 109.190894, "continent": "South East Asia", "region_altenative_name": "", "place": "", "latitude": -7.400673, "exact": "Y", "city_alternative_name3": "", "city_alternative_name": ""}}, {"pk": 126, "model": "dasa.diplomaticletterlocation", "fields": {"city": "Johor", "reference": "", "region": "Malaysian Peninsula", "city_alternative_name2": "", "longitude": 103.505343, "continent": "South East Asia", "region_altenative_name": "", "place": "", "latitude": 2.047907, "exact": "N", "city_alternative_name3": "", "city_alternative_name": ""}}, {"pk": 127, "model": "dasa.diplomaticletterlocation", "fields": {"city": "Jolo", "reference": "", "region": "Philippines", "city_alternative_name2": "", "longitude": 121.124461, "continent": "South East Asia", "region_altenative_name": "", "place": "", "latitude": 5.986836, "exact": "Y", "city_alternative_name3": "", "city_alternative_name": ""}}, {"pk": 128, "model": "dasa.diplomaticletterlocation", "fields": {"city": "Jurwati", "reference": "Unknown", "region": "Timor", "city_alternative_name2": "", "longitude": 123.620495, "continent": "South East Asia", "region_altenative_name": "", "place": "", "latitude": -10.156895, "exact": "N", "city_alternative_name3": "", "city_alternative_name": ""}}, {"pk": 129, "model": "dasa.diplomaticletterlocation", "fields": {"city": "Juwana", "reference": "", "region": "Java/Bali", "city_alternative_name2": "", "longitude": 111.137896, "continent": "South East Asia", "region_altenative_name": "", "place": "", "latitude": -6.708247, "exact": "Y", "city_alternative_name3": "", "city_alternative_name": ""}}, {"pk": 130, "model": "dasa.diplomaticletterlocation", "fields": {"city": "Kakappar", "reference": "Widely refered to, but its exact location remains uncertain, although Karaeng Galesong's graveside suggest it being located in Ngantang near Malang. Also known as Kappar.", "region": "Java/Bali", "city_alternative_name2": "", "longitude": 112.362123, "continent": "South East Asia", "region_altenative_name": "", "place": "Camp of Galesong", "latitude": -7.893972, "exact": "N", "city_alternative_name3": "", "city_alternative_name": ""}}, {"pk": 131, "model": "dasa.diplomaticletterlocation", "fields": {"city": "Kalitanjung", "reference": "", "region": "Java/Bali", "city_alternative_name2": "", "longitude": 108.532518, "continent": "South East Asia", "region_altenative_name": "", "place": "", "latitude": -6.748101, "exact": "Y", "city_alternative_name3": "", "city_alternative_name": ""}}, {"pk": 132, "model": "dasa.diplomaticletterlocation", "fields": {"city": "Kaliwungu", "reference": "", "region": "Java/Bali", "city_alternative_name2": "", "longitude": 110.247598, "continent": "South East Asia", "region_altenative_name": "Kendal", "place": "Pendopo Kawedanan Kaliwungu", "latitude": -6.955149, "exact": "Y", "city_alternative_name3": "", "city_alternative_name": ""}}, {"pk": 133, "model": "dasa.diplomaticletterlocation", "fields": {"city": "Kambang", "reference": "", "region": "Sumatra", "city_alternative_name2": "", "longitude": 100.715797, "continent": "South East Asia", "region_altenative_name": "", "place": "", "latitude": 1.708509, "exact": "Y", "city_alternative_name3": "", "city_alternative_name": ""}}, {"pk": 134, "model": "dasa.diplomaticletterlocation", "fields": {"city": "Kampung Baru", "reference": "Unknown", "region": "Sumatra", "city_alternative_name2": "", "longitude": 99.802626, "continent": "South East Asia", "region_altenative_name": "", "place": "", "latitude": 2.142852, "exact": "Y", "city_alternative_name3": "", "city_alternative_name": ""}}, {"pk": 135, "model": "dasa.diplomaticletterlocation", "fields": {"city": "Kanara", "reference": "Arcot is also written as Arkat", "region": "India/Ceylon", "city_alternative_name2": "", "longitude": 79.318559, "continent": "South Asia", "region_altenative_name": "", "place": "Arcot", "latitude": 12.900027, "exact": "Y", "city_alternative_name3": "", "city_alternative_name": "Carnatic"}}, {"pk": 136, "model": "dasa.diplomaticletterlocation", "fields": {"city": "Kandy", "reference": "", "region": "India/Ceylon", "city_alternative_name2": "", "longitude": 80.639944, "continent": "South Asia", "region_altenative_name": "", "place": "Royal Palace of Kandy", "latitude": 7.293425, "exact": "Y", "city_alternative_name3": "", "city_alternative_name": ""}}, {"pk": 137, "model": "dasa.diplomaticletterlocation", "fields": {"city": "Karangan", "reference": "", "region": "Borneo", "city_alternative_name2": "", "longitude": 117.708504, "continent": "South East Asia", "region_altenative_name": "Kutai", "place": "", "latitude": 1.260289, "exact": "N", "city_alternative_name3": "", "city_alternative_name": ""}}, {"pk": 138, "model": "dasa.diplomaticletterlocation", "fields": {"city": "Karangasem", "reference": "", "region": "Java/Bali", "city_alternative_name2": "", "longitude": 115.606542, "continent": "South East Asia", "region_altenative_name": "", "place": "Puri Agung Karangasem", "latitude": -8.457177, "exact": "Y", "city_alternative_name3": "", "city_alternative_name": ""}}, {"pk": 139, "model": "dasa.diplomaticletterlocation", "fields": {"city": "Karawang", "reference": "", "region": "Java/Bali", "city_alternative_name2": "", "longitude": 107.298291, "continent": "South East Asia", "region_altenative_name": "", "place": "Pendopo Lapangan Karang Pawitan", "latitude": -6.298308, "exact": "Y", "city_alternative_name3": "", "city_alternative_name": ""}}, {"pk": 140, "model": "dasa.diplomaticletterlocation", "fields": {"city": "Kartasura", "reference": "The kraton is now in ruins.", "region": "Java/Bali", "city_alternative_name2": "", "longitude": 110.723054, "continent": "South East Asia", "region_altenative_name": "", "place": "Keraton Kartasura", "latitude": -7.544778, "exact": "Y", "city_alternative_name3": "", "city_alternative_name": ""}}, {"pk": 141, "model": "dasa.diplomaticletterlocation", "fields": {"city": "Kawang", "reference": "", "region": "West- and East Nusa Tenggara", "city_alternative_name2": "", "longitude": 122.962418, "continent": "South East Asia", "region_altenative_name": "Solor", "place": "", "latitude": -8.501303, "exact": "N", "city_alternative_name3": "", "city_alternative_name": ""}}, {"pk": 142, "model": "dasa.diplomaticletterlocation", "fields": {"city": "Kayamkulam", "reference": "", "region": "India/Ceylon", "city_alternative_name2": "", "longitude": 76.503228, "continent": "South Asia", "region_altenative_name": "", "place": "", "latitude": 9.16572, "exact": "N", "city_alternative_name3": "", "city_alternative_name": ""}}, {"pk": 143, "model": "dasa.diplomaticletterlocation", "fields": {"city": "Kayeli", "reference": "Geodata unreliable", "region": "Moluccas", "city_alternative_name2": "", "longitude": 126.614722, "continent": "South East Asia", "region_altenative_name": "Buru", "place": "", "latitude": -3.453779, "exact": "N", "city_alternative_name3": "", "city_alternative_name": ""}}, {"pk": 144, "model": "dasa.diplomaticletterlocation", "fields": {"city": "Kedah", "reference": "", "region": "Malaysian Peninsula", "city_alternative_name2": "", "longitude": 100.366249, "continent": "South East Asia", "region_altenative_name": "", "place": "Balai Besar", "latitude": 6.120054, "exact": "Y", "city_alternative_name3": "", "city_alternative_name": ""}}, {"pk": 145, "model": "dasa.diplomaticletterlocation", "fields": {"city": "Kediri", "reference": "", "region": "Java/Bali", "city_alternative_name2": "", "longitude": 112.01219, "continent": "South East Asia", "region_altenative_name": "", "place": "Pendopo Kediri", "latitude": -7.826726, "exact": "Y", "city_alternative_name3": "", "city_alternative_name": ""}}, {"pk": 146, "model": "dasa.diplomaticletterlocation", "fields": {"city": "Keka", "reference": "", "region": "West- and East Nusa Tenggara", "city_alternative_name2": "", "longitude": 123.159458, "continent": "South East Asia", "region_altenative_name": "Rote", "place": "", "latitude": -10.785486, "exact": "N", "city_alternative_name3": "", "city_alternative_name": ""}}, {"pk": 147, "model": "dasa.diplomaticletterlocation", "fields": {"city": "Kendal", "reference": "", "region": "Java/Bali", "city_alternative_name2": "", "longitude": 110.203613, "continent": "South East Asia", "region_altenative_name": "", "place": "Pendopo Kendal", "latitude": -6.922633, "exact": "Y", "city_alternative_name3": "", "city_alternative_name": ""}}, {"pk": 148, "model": "dasa.diplomaticletterlocation", "fields": {"city": "Kesnai", "reference": "Part of the Sonbai realm", "region": "Timor", "city_alternative_name2": "", "longitude": 123.620495, "continent": "South East Asia", "region_altenative_name": "", "place": "", "latitude": -10.156895, "exact": "N", "city_alternative_name3": "", "city_alternative_name": ""}}, {"pk": 149, "model": "dasa.diplomaticletterlocation", "fields": {"city": "Khalifah", "reference": "", "region": "Sumatra", "city_alternative_name2": "", "longitude": 100.386969, "continent": "South East Asia", "region_altenative_name": "Padang", "place": "", "latitude": -0.953672, "exact": "Y", "city_alternative_name3": "", "city_alternative_name": ""}}, {"pk": 150, "model": "dasa.diplomaticletterlocation", "fields": {"city": "Klungkung", "reference": "", "region": "Java/Bali", "city_alternative_name2": "", "longitude": 115.403333, "continent": "South East Asia", "region_altenative_name": "Bali", "place": "Klungkung Palace", "latitude": -8.535555, "exact": "Y", "city_alternative_name3": "", "city_alternative_name": ""}}, {"pk": 151, "model": "dasa.diplomaticletterlocation", "fields": {"city": "Kochi", "reference": "", "region": "India/Ceylon", "city_alternative_name2": "", "longitude": 76.25937, "continent": "South Asia", "region_altenative_name": "Malabar (Kerala)", "place": "Mattancherry Palace", "latitude": 9.958274, "exact": "Y", "city_alternative_name3": "", "city_alternative_name": "Cochin/Calicut"}}, {"pk": 152, "model": "dasa.diplomaticletterlocation", "fields": {"city": "Kodungallur", "reference": "", "region": "India/Ceylon", "city_alternative_name2": "", "longitude": 76.195837, "continent": "South Asia", "region_altenative_name": "", "place": "", "latitude": 10.209391, "exact": "Y", "city_alternative_name3": "", "city_alternative_name": ""}}, {"pk": 153, "model": "dasa.diplomaticletterlocation", "fields": {"city": "Kolathunadu", "reference": "", "region": "India/Ceylon", "city_alternative_name2": "", "longitude": 75.370366, "continent": "South Asia", "region_altenative_name": "Kerala", "place": "", "latitude": 11.874477, "exact": "N", "city_alternative_name3": "", "city_alternative_name": "Kannur/Cannanore/Chirakkal"}}, {"pk": 154, "model": "dasa.diplomaticletterlocation", "fields": {"city": "Korbaffo", "reference": "", "region": "West- and East Nusa Tenggara", "city_alternative_name2": "", "longitude": 123.232706, "continent": "South East Asia", "region_altenative_name": "Rote", "place": "", "latitude": -10.608473, "exact": "Y", "city_alternative_name3": "", "city_alternative_name": "Korbaffu"}}, {"pk": 155, "model": "dasa.diplomaticletterlocation", "fields": {"city": "Kore", "reference": "", "region": "West- and East Nusa Tenggara", "city_alternative_name2": "", "longitude": 118.260229, "continent": "South East Asia", "region_altenative_name": "", "place": "", "latitude": -8.399379, "exact": "Y", "city_alternative_name3": "", "city_alternative_name": ""}}, {"pk": 156, "model": "dasa.diplomaticletterlocation", "fields": {"city": "Kota Tengah", "reference": "", "region": "Sumatra", "city_alternative_name2": "", "longitude": 100.323928, "continent": "South East Asia", "region_altenative_name": "", "place": "", "latitude": -0.811572, "exact": "Y", "city_alternative_name3": "", "city_alternative_name": ""}}, {"pk": 157, "model": "dasa.diplomaticletterlocation", "fields": {"city": "Kotawaringin", "reference": "", "region": "Borneo", "city_alternative_name2": "", "longitude": 111.632867, "continent": "South East Asia", "region_altenative_name": "", "place": "Istana Kuning", "latitude": -2.676194, "exact": "Y", "city_alternative_name3": "", "city_alternative_name": "Pangkalan Bun"}}, {"pk": 158, "model": "dasa.diplomaticletterlocation", "fields": {"city": "Krawis", "reference": "Unknown", "region": "Java/Bali", "city_alternative_name2": "", "longitude": 110.712246, "continent": "South East Asia", "region_altenative_name": "", "place": "", "latitude": -7.614529, "exact": "N", "city_alternative_name3": "", "city_alternative_name": ""}}, {"pk": 159, "model": "dasa.diplomaticletterlocation", "fields": {"city": "Kudus", "reference": "", "region": "Java/Bali", "city_alternative_name2": "", "longitude": 110.84137, "continent": "South East Asia", "region_altenative_name": "", "place": "", "latitude": -6.80726, "exact": "N", "city_alternative_name3": "", "city_alternative_name": ""}}, {"pk": 160, "model": "dasa.diplomaticletterlocation", "fields": {"city": "Kupang", "reference": "", "region": "Timor", "city_alternative_name2": "", "longitude": 123.574279, "continent": "South East Asia", "region_altenative_name": "", "place": "Benteng Concordia", "latitude": -10.162743, "exact": "Y", "city_alternative_name3": "", "city_alternative_name": ""}}, {"pk": 161, "model": "dasa.diplomaticletterlocation", "fields": {"city": "Kutai", "reference": "", "region": "Borneo", "city_alternative_name2": "", "longitude": 115.83594, "continent": "South East Asia", "region_altenative_name": "", "place": "", "latitude": -0.568743, "exact": "Y", "city_alternative_name3": "", "city_alternative_name": ""}}, {"pk": 162, "model": "dasa.diplomaticletterlocation", "fields": {"city": "Kyoto", "reference": "", "region": "Japan", "city_alternative_name2": "", "longitude": 135.762163, "continent": "East Asia", "region_altenative_name": "", "place": "Imperial Palace", "latitude": 35.024113, "exact": "Y", "city_alternative_name3": "", "city_alternative_name": ""}}, {"pk": 163, "model": "dasa.diplomaticletterlocation", "fields": {"city": "Lamahala", "reference": "", "region": "West- and East Nusa Tenggara", "city_alternative_name2": "", "longitude": 123.151701, "continent": "South East Asia", "region_altenative_name": "Adonara", "place": "", "latitude": -8.387523, "exact": "Y", "city_alternative_name3": "", "city_alternative_name": ""}}, {"pk": 164, "model": "dasa.diplomaticletterlocation", "fields": {"city": "Lamakera", "reference": "", "region": "West- and East Nusa Tenggara", "city_alternative_name2": "", "longitude": 123.163697, "continent": "South East Asia", "region_altenative_name": "Solor", "place": "", "latitude": -8.434423, "exact": "Y", "city_alternative_name3": "", "city_alternative_name": ""}}, {"pk": 165, "model": "dasa.diplomaticletterlocation", "fields": {"city": "Lamalata", "reference": "Geodata unreliable", "region": "West- and East Nusa Tenggara", "city_alternative_name2": "", "longitude": 122.942769, "continent": "South East Asia", "region_altenative_name": "Solor", "place": "", "latitude": -8.519812, "exact": "N", "city_alternative_name3": "", "city_alternative_name": ""}}, {"pk": 166, "model": "dasa.diplomaticletterlocation", "fields": {"city": "Lamongan", "reference": "", "region": "Java/Bali", "city_alternative_name2": "", "longitude": 112.415742, "continent": "South East Asia", "region_altenative_name": "", "place": "Pendopo Lamongan", "latitude": -7.119591, "exact": "Y", "city_alternative_name3": "", "city_alternative_name": ""}}, {"pk": 167, "model": "dasa.diplomaticletterlocation", "fields": {"city": "Lampung", "reference": "", "region": "Sumatra", "city_alternative_name2": "", "longitude": 105.262186, "continent": "South East Asia", "region_altenative_name": "", "place": "Pendopo Bandar Lampung", "latitude": -5.430657, "exact": "Y", "city_alternative_name3": "", "city_alternative_name": ""}}, {"pk": 168, "model": "dasa.diplomaticletterlocation", "fields": {"city": "Landu", "reference": "", "region": "West- and East Nusa Tenggara", "city_alternative_name2": "", "longitude": 122.94672, "continent": "South East Asia", "region_altenative_name": "Rote", "place": "", "latitude": -10.93091, "exact": "Y", "city_alternative_name3": "", "city_alternative_name": ""}}, {"pk": 169, "model": "dasa.diplomaticletterlocation", "fields": {"city": "Lanqueiro", "reference": "", "region": "Timor", "city_alternative_name2": "", "longitude": 125.442624, "continent": "South East Asia", "region_altenative_name": "", "place": "", "latitude": -8.578992, "exact": "N", "city_alternative_name3": "", "city_alternative_name": ""}}, {"pk": 170, "model": "dasa.diplomaticletterlocation", "fields": {"city": "Larantuka", "reference": "", "region": "West- and East Nusa Tenggara", "city_alternative_name2": "", "longitude": 122.986619, "continent": "South East Asia", "region_altenative_name": "Flores", "place": "Istana Larantuka", "latitude": -8.341074, "exact": "Y", "city_alternative_name3": "", "city_alternative_name": ""}}, {"pk": 171, "model": "dasa.diplomaticletterlocation", "fields": {"city": "Lasem", "reference": "See William Thorn, Memoir of the Conquest of Java; 198", "region": "Java/Bali", "city_alternative_name2": "", "longitude": 111.445372, "continent": "South East Asia", "region_altenative_name": "", "place": "", "latitude": -6.698632, "exact": "Y", "city_alternative_name3": "", "city_alternative_name": "Lasam"}}, {"pk": 172, "model": "dasa.diplomaticletterlocation", "fields": {"city": "Launggyet", "reference": "", "region": "India/Ceylon", "city_alternative_name2": "", "longitude": 93.191056, "continent": "South Asia", "region_altenative_name": "Rakhine", "place": "Mrauk U", "latitude": 20.593378, "exact": "Y", "city_alternative_name3": "", "city_alternative_name": "Arakan"}}, {"pk": 173, "model": "dasa.diplomaticletterlocation", "fields": {"city": "Leimea", "reference": "Unknown", "region": "Timor", "city_alternative_name2": "", "longitude": 125.379458, "continent": "South East Asia", "region_altenative_name": "", "place": "", "latitude": -8.896425, "exact": "N", "city_alternative_name3": "", "city_alternative_name": ""}}, {"pk": 174, "model": "dasa.diplomaticletterlocation", "fields": {"city": "Lelenuk", "reference": "", "region": "West- and East Nusa Tenggara", "city_alternative_name2": "", "longitude": 123.26433, "continent": "South East Asia", "region_altenative_name": "Rote", "place": "", "latitude": -10.71674, "exact": "N", "city_alternative_name3": "", "city_alternative_name": ""}}, {"pk": 175, "model": "dasa.diplomaticletterlocation", "fields": {"city": "Liae", "reference": "Unknown", "region": "West- and East Nusa Tenggara", "city_alternative_name2": "", "longitude": 121.867646, "continent": "South East Asia", "region_altenative_name": "Savu", "place": "", "latitude": -10.599585, "exact": "N", "city_alternative_name3": "", "city_alternative_name": ""}}, {"pk": 176, "model": "dasa.diplomaticletterlocation", "fields": {"city": "Lifau", "reference": "For a description see Hagerdal's Lords of the Land, Lords of the Sea; 379-380", "region": "Timor", "city_alternative_name2": "", "longitude": 124.135147, "continent": "South East Asia", "region_altenative_name": "", "place": "Portuguese Governor of Timor\u2019s residence", "latitude": -9.307374, "exact": "Y", "city_alternative_name3": "", "city_alternative_name": ""}}, {"pk": 177, "model": "dasa.diplomaticletterlocation", "fields": {"city": "Ligor", "reference": "Geodata unreliable", "region": "Thailand", "city_alternative_name2": "", "longitude": 99.960503, "continent": "South East Asia", "region_altenative_name": "", "place": "", "latitude": 8.428767, "exact": "N", "city_alternative_name3": "", "city_alternative_name": ""}}, {"pk": 178, "model": "dasa.diplomaticletterlocation", "fields": {"city": "Limbangan", "reference": "", "region": "Java/Bali", "city_alternative_name2": "", "longitude": 110.282426, "continent": "South East Asia", "region_altenative_name": "", "place": "", "latitude": -7.140403, "exact": "Y", "city_alternative_name3": "", "city_alternative_name": ""}}, {"pk": 179, "model": "dasa.diplomaticletterlocation", "fields": {"city": "Limboto", "reference": "", "region": "Sulawesi", "city_alternative_name2": "", "longitude": 122.991992, "continent": "South East Asia", "region_altenative_name": "", "place": "", "latitude": 0.626716, "exact": "Y", "city_alternative_name3": "", "city_alternative_name": "Gorontalo"}}, {"pk": 180, "model": "dasa.diplomaticletterlocation", "fields": {"city": "Lisbon", "reference": "", "region": "Portugal", "city_alternative_name2": "", "longitude": -9.153949, "continent": "Europe", "region_altenative_name": "", "place": "Cortes", "latitude": 38.713117, "exact": "Y", "city_alternative_name3": "", "city_alternative_name": ""}}, {"pk": 181, "model": "dasa.diplomaticletterlocation", "fields": {"city": "Lohayong", "reference": "", "region": "West- and East Nusa Tenggara", "city_alternative_name2": "", "longitude": 123.072338, "continent": "South East Asia", "region_altenative_name": "Solor", "place": "", "latitude": -8.434911, "exact": "Y", "city_alternative_name3": "", "city_alternative_name": ""}}, {"pk": 182, "model": "dasa.diplomaticletterlocation", "fields": {"city": "Lole", "reference": "Geodata unreliable", "region": "West- and East Nusa Tenggara", "city_alternative_name2": "", "longitude": 123.400454, "continent": "South East Asia", "region_altenative_name": "Rote", "place": "", "latitude": -10.607724, "exact": "N", "city_alternative_name3": "", "city_alternative_name": "Loele"}}, {"pk": 183, "model": "dasa.diplomaticletterlocation", "fields": {"city": "London", "reference": "", "region": "England", "city_alternative_name2": "", "longitude": -0.126516, "continent": "Europe", "region_altenative_name": "", "place": "Whitehall palace", "latitude": 51.502901, "exact": "Y", "city_alternative_name3": "", "city_alternative_name": ""}}, {"pk": 184, "model": "dasa.diplomaticletterlocation", "fields": {"city": "Luhu", "reference": "", "region": "Moluccas", "city_alternative_name2": "", "longitude": 127.971672, "continent": "South East Asia", "region_altenative_name": "", "place": "", "latitude": -3.37384, "exact": "Y", "city_alternative_name3": "", "city_alternative_name": ""}}, {"pk": 185, "model": "dasa.diplomaticletterlocation", "fields": {"city": "Macao", "reference": "", "region": "China", "city_alternative_name2": "", "longitude": 113.53998, "continent": "East Asia", "region_altenative_name": "", "place": "Largo de Senado", "latitude": 22.193735, "exact": "Y", "city_alternative_name3": "", "city_alternative_name": "Maccao"}}, {"pk": 186, "model": "dasa.diplomaticletterlocation", "fields": {"city": "Machilipatnam", "reference": "", "region": "India/Ceylon", "city_alternative_name2": "", "longitude": 81.130719, "continent": "South Asia", "region_altenative_name": "", "place": "", "latitude": 16.185902, "exact": "N", "city_alternative_name3": "", "city_alternative_name": "Masulipatnam"}}, {"pk": 187, "model": "dasa.diplomaticletterlocation", "fields": {"city": "Madras", "reference": "", "region": "", "city_alternative_name2": "", "longitude": 80.285059, "continent": "European Settlement", "region_altenative_name": "", "place": "Fort St George", "latitude": 13.080018, "exact": "Y", "city_alternative_name3": "", "city_alternative_name": "Chennai"}}, {"pk": 188, "model": "dasa.diplomaticletterlocation", "fields": {"city": "Maguindanao", "reference": "", "region": "Philippines", "city_alternative_name2": "", "longitude": 124.244653, "continent": "South East Asia", "region_altenative_name": "", "place": "", "latitude": 7.198676, "exact": "N", "city_alternative_name3": "", "city_alternative_name": "Cotabato"}}, {"pk": 189, "model": "dasa.diplomaticletterlocation", "fields": {"city": "Maimbung", "reference": "", "region": "Philippines", "city_alternative_name2": "", "longitude": 121.015836, "continent": "South East Asia", "region_altenative_name": "Sulu", "place": "", "latitude": 5.929415, "exact": "Y", "city_alternative_name3": "", "city_alternative_name": ""}}, {"pk": 190, "model": "dasa.diplomaticletterlocation", "fields": {"city": "Makassar", "reference": "", "region": "Sulawesi", "city_alternative_name2": "", "longitude": 119.452413, "continent": "South East Asia", "region_altenative_name": "Gowa", "place": "Istana raja Gowa", "latitude": -5.20706, "exact": "Y", "city_alternative_name3": "", "city_alternative_name": ""}}, {"pk": 191, "model": "dasa.diplomaticletterlocation", "fields": {"city": "Malabar", "reference": "", "region": "India/Ceylon", "city_alternative_name2": "", "longitude": 76.28, "continent": "South Asia", "region_altenative_name": "", "place": "", "latitude": 9.97, "exact": "N", "city_alternative_name3": "", "city_alternative_name": ""}}, {"pk": 192, "model": "dasa.diplomaticletterlocation", "fields": {"city": "Malacca", "reference": "One of the places of address was the Stadthuys (2.194095,102.249651)", "region": "Malaysian Peninsula", "city_alternative_name2": "", "longitude": 102.281935, "continent": "South East Asia", "region_altenative_name": "", "place": "", "latitude": 2.273334, "exact": "Y", "city_alternative_name3": "", "city_alternative_name": ""}}, {"pk": 193, "model": "dasa.diplomaticletterlocation", "fields": {"city": "Mandar", "reference": "", "region": "Sulawesi", "city_alternative_name2": "", "longitude": 119.139064, "continent": "South East Asia", "region_altenative_name": "", "place": "", "latitude": -3.341932, "exact": "N", "city_alternative_name3": "", "city_alternative_name": ""}}, {"pk": 194, "model": "dasa.diplomaticletterlocation", "fields": {"city": "Mania", "reference": "", "region": "West- and East Nusa Tenggara", "city_alternative_name2": "", "longitude": 121.890413, "continent": "South East Asia", "region_altenative_name": "Savu", "place": "", "latitude": -10.439429, "exact": "N", "city_alternative_name3": "", "city_alternative_name": "Menia"}}, {"pk": 195, "model": "dasa.diplomaticletterlocation", "fields": {"city": "Manila", "reference": "", "region": "Philippines", "city_alternative_name2": "", "longitude": 120.970073, "continent": "South East Asia", "region_altenative_name": "", "place": "Fort Santiago", "latitude": 14.594407, "exact": "Y", "city_alternative_name3": "", "city_alternative_name": ""}}, {"pk": 196, "model": "dasa.diplomaticletterlocation", "fields": {"city": "Manipa", "reference": "", "region": "Moluccas", "city_alternative_name2": "", "longitude": 127.574765, "continent": "South East Asia", "region_altenative_name": "", "place": "", "latitude": -3.308611, "exact": "N", "city_alternative_name3": "", "city_alternative_name": ""}}, {"pk": 197, "model": "dasa.diplomaticletterlocation", "fields": {"city": "Manlia", "reference": "Unknown", "region": "Timor", "city_alternative_name2": "", "longitude": 124.773101, "continent": "South East Asia", "region_altenative_name": "", "place": "", "latitude": -9.352867, "exact": "N", "city_alternative_name3": "", "city_alternative_name": ""}}, {"pk": 198, "model": "dasa.diplomaticletterlocation", "fields": {"city": "Manreuw", "reference": "", "region": "Timor", "city_alternative_name2": "", "longitude": 123.620495, "continent": "South East Asia", "region_altenative_name": "", "place": "", "latitude": -10.156895, "exact": "N", "city_alternative_name3": "", "city_alternative_name": ""}}, {"pk": 199, "model": "dasa.diplomaticletterlocation", "fields": {"city": "Manyili", "reference": "", "region": "West- and East Nusa Tenggara", "city_alternative_name2": "", "longitude": 119.885559, "continent": "South East Asia", "region_altenative_name": "Sumba", "place": "", "latitude": -9.689023, "exact": "N", "city_alternative_name3": "", "city_alternative_name": ""}}, {"pk": 200, "model": "dasa.diplomaticletterlocation", "fields": {"city": "Martapura", "reference": "", "region": "Borneo", "city_alternative_name2": "", "longitude": 114.850306, "continent": "South East Asia", "region_altenative_name": "", "place": "", "latitude": -3.403349, "exact": "Y", "city_alternative_name3": "", "city_alternative_name": ""}}, {"pk": 201, "model": "dasa.diplomaticletterlocation", "fields": {"city": "Mashhad", "reference": "", "region": "Persia", "city_alternative_name2": "", "longitude": 59.615668, "continent": "Middle East", "region_altenative_name": "", "place": "", "latitude": 36.287383, "exact": "Y", "city_alternative_name3": "", "city_alternative_name": ""}}, {"pk": 202, "model": "dasa.diplomaticletterlocation", "fields": {"city": "Matan", "reference": "", "region": "Borneo", "city_alternative_name2": "", "longitude": 109.974133, "continent": "South East Asia", "region_altenative_name": "", "place": "Nasib Istana Panembahan Matan-Tanjungpura di Mulia Kerta", "latitude": -1.870342, "exact": "Y", "city_alternative_name3": "", "city_alternative_name": "Tanjungpura/Sukadana"}}, {"pk": 203, "model": "dasa.diplomaticletterlocation", "fields": {"city": "Mataram", "reference": "Geodata unreliable", "region": "Java/Bali", "city_alternative_name2": "", "longitude": 116.113006, "continent": "South East Asia", "region_altenative_name": "", "place": "", "latitude": -8.586143, "exact": "N", "city_alternative_name3": "", "city_alternative_name": ""}}, {"pk": 204, "model": "dasa.diplomaticletterlocation", "fields": {"city": "Maubara", "reference": "", "region": "Timor", "city_alternative_name2": "", "longitude": 125.204902, "continent": "South East Asia", "region_altenative_name": "", "place": "", "latitude": -8.611181, "exact": "N", "city_alternative_name3": "", "city_alternative_name": ""}}, {"pk": 205, "model": "dasa.diplomaticletterlocation", "fields": {"city": "Maureo", "reference": "Unknown", "region": "Timor", "city_alternative_name2": "", "longitude": 124.751129, "continent": "South East Asia", "region_altenative_name": "", "place": "", "latitude": -9.485635, "exact": "N", "city_alternative_name3": "", "city_alternative_name": ""}}, {"pk": 206, "model": "dasa.diplomaticletterlocation", "fields": {"city": "Mempawah", "reference": "", "region": "Borneo", "city_alternative_name2": "", "longitude": 108.961025, "continent": "South East Asia", "region_altenative_name": "", "place": "Istana Amantubillah", "latitude": 0.371022, "exact": "Y", "city_alternative_name3": "", "city_alternative_name": ""}}, {"pk": 207, "model": "dasa.diplomaticletterlocation", "fields": {"city": "Menanga", "reference": "", "region": "West- and East Nusa Tenggara", "city_alternative_name2": "", "longitude": 122.905941, "continent": "South East Asia", "region_altenative_name": "Solor", "place": "", "latitude": -8.582481, "exact": "N", "city_alternative_name3": "", "city_alternative_name": ""}}, {"pk": 208, "model": "dasa.diplomaticletterlocation", "fields": {"city": "Mengwi", "reference": "", "region": "Java/Bali", "city_alternative_name2": "", "longitude": 115.171579, "continent": "South East Asia", "region_altenative_name": "", "place": "", "latitude": -8.543465, "exact": "Y", "city_alternative_name3": "", "city_alternative_name": "Triangapura"}}, {"pk": 209, "model": "dasa.diplomaticletterlocation", "fields": {"city": "Menjuta", "reference": "", "region": "Sumatra", "city_alternative_name2": "", "longitude": 100.391943, "continent": "South East Asia", "region_altenative_name": "", "place": "UNKNOWN IN WEST SUMATRA", "latitude": -0.926477, "exact": "N", "city_alternative_name3": "", "city_alternative_name": ""}}, {"pk": 210, "model": "dasa.diplomaticletterlocation", "fields": {"city": "Mesara", "reference": "", "region": "West- and East Nusa Tenggara", "city_alternative_name2": "", "longitude": 121.75374, "continent": "South East Asia", "region_altenative_name": "Savu", "place": "", "latitude": -10.572883, "exact": "N", "city_alternative_name3": "", "city_alternative_name": "Mehara"}}, {"pk": 211, "model": "dasa.diplomaticletterlocation", "fields": {"city": "Minangkabau", "reference": "", "region": "Sumatra", "city_alternative_name2": "", "longitude": 100.60128, "continent": "South East Asia", "region_altenative_name": "", "place": "", "latitude": -0.401485, "exact": "Y", "city_alternative_name3": "", "city_alternative_name": "Minangkabau Highlands"}}, {"pk": 212, "model": "dasa.diplomaticletterlocation", "fields": {"city": "Mocha", "reference": "", "region": "Yemen", "city_alternative_name2": "", "longitude": 43.248273, "continent": "Middle East", "region_altenative_name": "", "place": "", "latitude": 13.312162, "exact": "N", "city_alternative_name3": "", "city_alternative_name": ""}}, {"pk": 213, "model": "dasa.diplomaticletterlocation", "fields": {"city": "Mughal Empire", "reference": "", "region": "India/Ceylon", "city_alternative_name2": "", "longitude": 77.236784, "continent": "South Asia", "region_altenative_name": "", "place": "Red Fort", "latitude": 28.655844, "exact": "Y", "city_alternative_name3": "", "city_alternative_name": "Delhi"}}, {"pk": 214, "model": "dasa.diplomaticletterlocation", "fields": {"city": "Muna", "reference": "", "region": "Sulawesi", "city_alternative_name2": "", "longitude": 122.618432, "continent": "South East Asia", "region_altenative_name": "", "place": "Tibore", "latitude": -4.900249, "exact": "N", "city_alternative_name3": "", "city_alternative_name": ""}}, {"pk": 215, "model": "dasa.diplomaticletterlocation", "fields": {"city": "Murshidabad", "reference": "", "region": "India/Ceylon", "city_alternative_name2": "", "longitude": 88.268755, "continent": "South Asia", "region_altenative_name": "Bengal", "place": "Kila Nizamat", "latitude": 24.186409, "exact": "Y", "city_alternative_name3": "", "city_alternative_name": ""}}, {"pk": 216, "model": "dasa.diplomaticletterlocation", "fields": {"city": "Muscat", "reference": "", "region": "Oman", "city_alternative_name2": "", "longitude": 56.771352, "continent": "Middle East", "region_altenative_name": "", "place": "Sohar Fort/Al Hujra", "latitude": 24.320817, "exact": "Y", "city_alternative_name3": "", "city_alternative_name": "Sohar"}}, {"pk": 217, "model": "dasa.diplomaticletterlocation", "fields": {"city": "Nagapattinam", "reference": "", "region": "India/Ceylon", "city_alternative_name2": "", "longitude": 79.843762, "continent": "South Asia", "region_altenative_name": "", "place": "", "latitude": 10.763012, "exact": "N", "city_alternative_name3": "", "city_alternative_name": ""}}, {"pk": 218, "model": "dasa.diplomaticletterlocation", "fields": {"city": "Nagara", "reference": "", "region": "India/Ceylon", "city_alternative_name2": "", "longitude": 75.5836737, "continent": "South Asia", "region_altenative_name": "Keladi", "place": "Shivappa Nayaka Fort", "latitude": 13.9274235, "exact": "Y", "city_alternative_name3": "", "city_alternative_name": "Ikkeri/Bednur/Bidanur"}}, {"pk": 219, "model": "dasa.diplomaticletterlocation", "fields": {"city": "Nagasaki", "reference": "", "region": "Japan", "city_alternative_name2": "", "longitude": 129.858472, "continent": "East Asia", "region_altenative_name": "", "place": "", "latitude": 32.77335, "exact": "Y", "city_alternative_name3": "", "city_alternative_name": ""}}, {"pk": 220, "model": "dasa.diplomaticletterlocation", "fields": {"city": "Nai Niap", "reference": "Part of the Sonbai realm", "region": "Timor", "city_alternative_name2": "", "longitude": 123.620495, "continent": "South East Asia", "region_altenative_name": "", "place": "", "latitude": -10.156895, "exact": "N", "city_alternative_name3": "", "city_alternative_name": "Nai Niab"}}, {"pk": 221, "model": "dasa.diplomaticletterlocation", "fields": {"city": "Nailake", "reference": "Unknown", "region": "Timor", "city_alternative_name2": "", "longitude": 124.060363, "continent": "South East Asia", "region_altenative_name": "", "place": "", "latitude": -10.23114, "exact": "N", "city_alternative_name3": "", "city_alternative_name": ""}}, {"pk": 222, "model": "dasa.diplomaticletterlocation", "fields": {"city": "Naitimu", "reference": "Unknown", "region": "Timor", "city_alternative_name2": "", "longitude": 124.890003, "continent": "South East Asia", "region_altenative_name": "", "place": "", "latitude": -9.273308, "exact": "N", "city_alternative_name3": "", "city_alternative_name": ""}}, {"pk": 223, "model": "dasa.diplomaticletterlocation", "fields": {"city": "Natar", "reference": "", "region": "Sumatra", "city_alternative_name2": "", "longitude": 105.242885, "continent": "South East Asia", "region_altenative_name": "Lampung", "place": "", "latitude": -5.265941, "exact": "N", "city_alternative_name3": "", "city_alternative_name": ""}}, {"pk": 224, "model": "dasa.diplomaticletterlocation", "fields": {"city": "Ndao", "reference": "Geodata unreliable", "region": "West- and East Nusa Tenggara", "city_alternative_name2": "", "longitude": 122.66492, "continent": "South East Asia", "region_altenative_name": "Rote", "place": "", "latitude": -10.81749, "exact": "N", "city_alternative_name3": "", "city_alternative_name": "Ndau"}}, {"pk": 225, "model": "dasa.diplomaticletterlocation", "fields": {"city": "Nenometan", "reference": "", "region": "Timor", "city_alternative_name2": "", "longitude": 124.764518, "continent": "South East Asia", "region_altenative_name": "", "place": "", "latitude": -9.779776, "exact": "N", "city_alternative_name3": "", "city_alternative_name": ""}}, {"pk": 226, "model": "dasa.diplomaticletterlocation", "fields": {"city": "Nobi-nobi", "reference": "", "region": "Timor", "city_alternative_name2": "", "longitude": 124.458641, "continent": "South East Asia", "region_altenative_name": "", "place": "", "latitude": -9.833763, "exact": "Y", "city_alternative_name3": "", "city_alternative_name": ""}}, {"pk": 227, "model": "dasa.diplomaticletterlocation", "fields": {"city": "Nusa Dila", "reference": "Unknown", "region": "Timor", "city_alternative_name2": "", "longitude": 125.477943, "continent": "South East Asia", "region_altenative_name": "", "place": "", "latitude": -8.632686, "exact": "N", "city_alternative_name3": "", "city_alternative_name": ""}}, {"pk": 228, "model": "dasa.diplomaticletterlocation", "fields": {"city": "Nusa Laut", "reference": "", "region": "Moluccas", "city_alternative_name2": "", "longitude": 128.785, "continent": "South East Asia", "region_altenative_name": "", "place": "", "latitude": -3.672855, "exact": "N", "city_alternative_name3": "", "city_alternative_name": ""}}, {"pk": 229, "model": "dasa.diplomaticletterlocation", "fields": {"city": "Oenale", "reference": "Geodata unreliable", "region": "West- and East Nusa Tenggara", "city_alternative_name2": "", "longitude": 122.841268, "continent": "South East Asia", "region_altenative_name": "Rote", "place": "", "latitude": -10.818241, "exact": "N", "city_alternative_name3": "", "city_alternative_name": ""}}, {"pk": 230, "model": "dasa.diplomaticletterlocation", "fields": {"city": "Oepao", "reference": "", "region": "West- and East Nusa Tenggara", "city_alternative_name2": "", "longitude": 123.380293, "continent": "South East Asia", "region_altenative_name": "Rote", "place": "", "latitude": -10.682912, "exact": "Y", "city_alternative_name3": "", "city_alternative_name": ""}}, {"pk": 231, "model": "dasa.diplomaticletterlocation", "fields": {"city": "Ossipoka", "reference": "Geodata unreliable", "region": "West- and East Nusa Tenggara", "city_alternative_name2": "", "longitude": 123.04842, "continent": "South East Asia", "region_altenative_name": "Rote", "place": "", "latitude": -10.775065, "exact": "N", "city_alternative_name3": "", "city_alternative_name": "Lelain"}}, {"pk": 232, "model": "dasa.diplomaticletterlocation", "fields": {"city": "Oudong", "reference": "", "region": "Cambodja", "city_alternative_name2": "", "longitude": 104.754167, "continent": "South East Asia", "region_altenative_name": "", "place": "Udong", "latitude": 11.82144, "exact": "Y", "city_alternative_name3": "", "city_alternative_name": "Udong"}}, {"pk": 233, "model": "dasa.diplomaticletterlocation", "fields": {"city": "Padang", "reference": "", "region": "Sumatra", "city_alternative_name2": "", "longitude": 100.362466, "continent": "South East Asia", "region_altenative_name": "", "place": "", "latitude": -0.952597, "exact": "N", "city_alternative_name3": "", "city_alternative_name": ""}}, {"pk": 234, "model": "dasa.diplomaticletterlocation", "fields": {"city": "Padang Lumajang", "reference": "Name altered to avoid confusion with the Sumatran Padang", "region": "Java/Bali", "city_alternative_name2": "", "longitude": 113.171988, "continent": "South East Asia", "region_altenative_name": "", "place": "", "latitude": -8.093284, "exact": "Y", "city_alternative_name3": "", "city_alternative_name": ""}}, {"pk": 235, "model": "dasa.diplomaticletterlocation", "fields": {"city": "Pagaden", "reference": "This place is located in Subang, Indramayu.", "region": "Java/Bali", "city_alternative_name2": "", "longitude": 107.810569, "continent": "South East Asia", "region_altenative_name": "", "place": "", "latitude": -6.482694, "exact": "Y", "city_alternative_name3": "", "city_alternative_name": ""}}, {"pk": 236, "model": "dasa.diplomaticletterlocation", "fields": {"city": "Pagaruyung", "reference": "", "region": "Sumatra", "city_alternative_name2": "", "longitude": 100.621335, "continent": "South East Asia", "region_altenative_name": "Minangkabau", "place": "Istano Basa Pagaruyung", "latitude": -0.471481, "exact": "Y", "city_alternative_name3": "", "city_alternative_name": ""}}, {"pk": 237, "model": "dasa.diplomaticletterlocation", "fields": {"city": "Pahang", "reference": "", "region": "Malaysian Peninsula", "city_alternative_name2": "", "longitude": 103.288828, "continent": "South East Asia", "region_altenative_name": "Johor", "place": "", "latitude": 3.824896, "exact": "N", "city_alternative_name3": "", "city_alternative_name": ""}}, {"pk": 238, "model": "dasa.diplomaticletterlocation", "fields": {"city": "Painan", "reference": "http://www.atlasofmutualheritage.nl/en/location/?id=630", "region": "Sumatra", "city_alternative_name2": "", "longitude": 100.574801, "continent": "South East Asia", "region_altenative_name": "", "place": "Fort Cronenburg", "latitude": -1.347537, "exact": "Y", "city_alternative_name3": "", "city_alternative_name": ""}}, {"pk": 239, "model": "dasa.diplomaticletterlocation", "fields": {"city": "Pajangkungan", "reference": "See De Graaf, Islamic States in Java; 179.", "region": "Java/Bali", "city_alternative_name2": "", "longitude": 112.591199, "continent": "South East Asia", "region_altenative_name": "", "place": "", "latitude": -7.475223, "exact": "Y", "city_alternative_name3": "", "city_alternative_name": ""}}, {"pk": 240, "model": "dasa.diplomaticletterlocation", "fields": {"city": "Palembang", "reference": "Destroyed", "region": "Sumatra", "city_alternative_name2": "", "longitude": 104.812538, "continent": "South East Asia", "region_altenative_name": "", "place": "Benteng Kuto Gawang", "latitude": -2.977349, "exact": "Y", "city_alternative_name3": "", "city_alternative_name": ""}}, {"pk": 241, "model": "dasa.diplomaticletterlocation", "fields": {"city": "Pamanukan", "reference": "", "region": "Java/Bali", "city_alternative_name2": "", "longitude": 107.81089, "continent": "South East Asia", "region_altenative_name": "", "place": "Kantor Kecamatan Pamanukan", "latitude": -6.285841, "exact": "Y", "city_alternative_name3": "", "city_alternative_name": ""}}, {"pk": 242, "model": "dasa.diplomaticletterlocation", "fields": {"city": "Pamekasan", "reference": "", "region": "Java/Bali", "city_alternative_name2": "", "longitude": 113.4825, "continent": "South East Asia", "region_altenative_name": "", "place": "Pendopo Pamekasan", "latitude": -7.1588, "exact": "Y", "city_alternative_name3": "", "city_alternative_name": "Pamakassan"}}, {"pk": 243, "model": "dasa.diplomaticletterlocation", "fields": {"city": "Panaruban", "reference": "", "region": "Java/Bali", "city_alternative_name2": "", "longitude": 107.388559, "continent": "South East Asia", "region_altenative_name": "", "place": "", "latitude": -6.937081, "exact": "Y", "city_alternative_name3": "", "city_alternative_name": ""}}, {"pk": 244, "model": "dasa.diplomaticletterlocation", "fields": {"city": "Panembong", "reference": "", "region": "Java/Bali", "city_alternative_name2": "", "longitude": 107.847978, "continent": "South East Asia", "region_altenative_name": "", "place": "", "latitude": -7.284003, "exact": "Y", "city_alternative_name3": "", "city_alternative_name": ""}}, {"pk": 245, "model": "dasa.diplomaticletterlocation", "fields": {"city": "Parakan Muncang", "reference": "", "region": "Java/Bali", "city_alternative_name2": "", "longitude": 107.831129, "continent": "South East Asia", "region_altenative_name": "", "place": "", "latitude": -6.964639, "exact": "Y", "city_alternative_name3": "", "city_alternative_name": ""}}, {"pk": 246, "model": "dasa.diplomaticletterlocation", "fields": {"city": "Pariaman", "reference": "", "region": "Sumatra", "city_alternative_name2": "", "longitude": 100.125776, "continent": "South East Asia", "region_altenative_name": "", "place": "Istana tabuik", "latitude": -0.640657, "exact": "Y", "city_alternative_name3": "", "city_alternative_name": ""}}, {"pk": 247, "model": "dasa.diplomaticletterlocation", "fields": {"city": "Parigi", "reference": "", "region": "Sulawesi", "city_alternative_name2": "", "longitude": 120.176558, "continent": "South East Asia", "region_altenative_name": "", "place": "", "latitude": -0.811589, "exact": "N", "city_alternative_name3": "", "city_alternative_name": ""}}, {"pk": 248, "model": "dasa.diplomaticletterlocation", "fields": {"city": "Paser", "reference": "", "region": "Borneo", "city_alternative_name2": "", "longitude": 116.210313, "continent": "South East Asia", "region_altenative_name": "", "place": "Istana Sadurangas", "latitude": -1.948659, "exact": "N", "city_alternative_name3": "", "city_alternative_name": ""}}, {"pk": 249, "model": "dasa.diplomaticletterlocation", "fields": {"city": "Pasir", "reference": "Pasir had a large Buginese migrant community", "region": "Borneo", "city_alternative_name2": "", "longitude": 116.228777, "continent": "South East Asia", "region_altenative_name": "", "place": "", "latitude": -1.971074, "exact": "Y", "city_alternative_name3": "", "city_alternative_name": "Pasar"}}, {"pk": 250, "model": "dasa.diplomaticletterlocation", "fields": {"city": "Pasisir", "reference": "", "region": "Java/Bali", "city_alternative_name2": "", "longitude": 113.449611, "continent": "South East Asia", "region_altenative_name": "", "place": "", "latitude": -7.219243, "exact": "N", "city_alternative_name3": "", "city_alternative_name": ""}}, {"pk": 251, "model": "dasa.diplomaticletterlocation", "fields": {"city": "Pasuruan", "reference": "", "region": "Java/Bali", "city_alternative_name2": "", "longitude": 112.908069, "continent": "South East Asia", "region_altenative_name": "", "place": "Pendopo Pasuruan", "latitude": -7.641393, "exact": "Y", "city_alternative_name3": "", "city_alternative_name": ""}}, {"pk": 252, "model": "dasa.diplomaticletterlocation", "fields": {"city": "Patani", "reference": "", "region": "India/Ceylon", "city_alternative_name2": "", "longitude": 101.247544, "continent": "South Asia", "region_altenative_name": "", "place": "Istana Patani", "latitude": 6.890532, "exact": "N", "city_alternative_name3": "", "city_alternative_name": "Pattani"}}, {"pk": 253, "model": "dasa.diplomaticletterlocation", "fields": {"city": "Pati", "reference": "", "region": "Java/Bali", "city_alternative_name2": "", "longitude": 111.037923, "continent": "South East Asia", "region_altenative_name": "", "place": "", "latitude": -6.748673, "exact": "N", "city_alternative_name3": "", "city_alternative_name": ""}}, {"pk": 254, "model": "dasa.diplomaticletterlocation", "fields": {"city": "Patimang", "reference": "", "region": "Java/Bali", "city_alternative_name2": "", "longitude": 107.370544, "continent": "South East Asia", "region_altenative_name": "", "place": "Unknown; in Cianjur", "latitude": -6.322063, "exact": "N", "city_alternative_name3": "", "city_alternative_name": ""}}, {"pk": 255, "model": "dasa.diplomaticletterlocation", "fields": {"city": "Pauh", "reference": "", "region": "Sumatra", "city_alternative_name2": "", "longitude": 100.427954, "continent": "South East Asia", "region_altenative_name": "", "place": "", "latitude": -0.936012, "exact": "Y", "city_alternative_name3": "", "city_alternative_name": ""}}, {"pk": 256, "model": "dasa.diplomaticletterlocation", "fields": {"city": "Pekalongan", "reference": "", "region": "Java/Bali", "city_alternative_name2": "", "longitude": 109.675159, "continent": "South East Asia", "region_altenative_name": "", "place": "Pendopo Pekalongan", "latitude": -6.890157, "exact": "Y", "city_alternative_name3": "", "city_alternative_name": ""}}, {"pk": 257, "model": "dasa.diplomaticletterlocation", "fields": {"city": "Pemalang", "reference": "", "region": "Java/Bali", "city_alternative_name2": "", "longitude": 109.381362, "continent": "South East Asia", "region_altenative_name": "", "place": "Pendopo Kab Pamelang", "latitude": -6.891076, "exact": "Y", "city_alternative_name3": "", "city_alternative_name": ""}}, {"pk": 258, "model": "dasa.diplomaticletterlocation", "fields": {"city": "Perak", "reference": "", "region": "Malaysian Peninsula", "city_alternative_name2": "", "longitude": 100.825911, "continent": "South East Asia", "region_altenative_name": "", "place": "", "latitude": 4.805262, "exact": "N", "city_alternative_name3": "", "city_alternative_name": ""}}, {"pk": 259, "model": "dasa.diplomaticletterlocation", "fields": {"city": "Ph\u00fa Xu\u00e2n", "reference": "", "region": "Vietnam", "city_alternative_name2": "", "longitude": 107.584702, "continent": "South East Asia", "region_altenative_name": "", "place": "Imperial City, Hu\u1ebf", "latitude": 16.463461, "exact": "Y", "city_alternative_name3": "", "city_alternative_name": "Annam"}}, {"pk": 260, "model": "dasa.diplomaticletterlocation", "fields": {"city": "Plered", "reference": "Currently called Pleret and located in Bantul.", "region": "Java/Bali", "city_alternative_name2": "", "longitude": 110.413989, "continent": "South East Asia", "region_altenative_name": "", "place": "Kraton Plered", "latitude": -7.877214, "exact": "Y", "city_alternative_name3": "", "city_alternative_name": ""}}, {"pk": 261, "model": "dasa.diplomaticletterlocation", "fields": {"city": "Pola", "reference": "Unknown", "region": "Timor", "city_alternative_name2": "", "longitude": 123.620495, "continent": "South East Asia", "region_altenative_name": "", "place": "", "latitude": -10.156895, "exact": "N", "city_alternative_name3": "", "city_alternative_name": ""}}, {"pk": 262, "model": "dasa.diplomaticletterlocation", "fields": {"city": "Pontianak", "reference": "", "region": "Borneo", "city_alternative_name2": "", "longitude": 109.353226, "continent": "South East Asia", "region_altenative_name": "", "place": "Istana Kadriah", "latitude": -0.061292, "exact": "Y", "city_alternative_name3": "", "city_alternative_name": ""}}, {"pk": 263, "model": "dasa.diplomaticletterlocation", "fields": {"city": "Priangan", "reference": "", "region": "Java/Bali", "city_alternative_name2": "", "longitude": 107.124683, "continent": "South East Asia", "region_altenative_name": "", "place": "Residential palace in Cianjur", "latitude": -6.814476, "exact": "N", "city_alternative_name3": "", "city_alternative_name": ""}}, {"pk": 264, "model": "dasa.diplomaticletterlocation", "fields": {"city": "Probolinggo", "reference": "", "region": "Java/Bali", "city_alternative_name2": "", "longitude": 113.216072, "continent": "South East Asia", "region_altenative_name": "", "place": "Pendopo Probolinggo", "latitude": -7.745807, "exact": "Y", "city_alternative_name3": "", "city_alternative_name": ""}}, {"pk": 265, "model": "dasa.diplomaticletterlocation", "fields": {"city": "Puducherry", "reference": "Destroyed", "region": "India/Ceylon", "city_alternative_name2": "", "longitude": 79.834233, "continent": "South Asia", "region_altenative_name": "", "place": "French Fort Louis", "latitude": 11.933105, "exact": "Y", "city_alternative_name3": "", "city_alternative_name": ""}}, {"pk": 266, "model": "dasa.diplomaticletterlocation", "fields": {"city": "Pulau Laut", "reference": "", "region": "Borneo", "city_alternative_name2": "", "longitude": 116.166667, "continent": "South East Asia", "region_altenative_name": "", "place": "", "latitude": -3.666667, "exact": "N", "city_alternative_name3": "", "city_alternative_name": ""}}, {"pk": 267, "model": "dasa.diplomaticletterlocation", "fields": {"city": "Pulau Onrust", "reference": "", "region": "Java/Bali", "city_alternative_name2": "", "longitude": 106.73494, "continent": "South East Asia", "region_altenative_name": "", "place": "", "latitude": -6.033416, "exact": "Y", "city_alternative_name3": "", "city_alternative_name": "Pulau Kapal"}}, {"pk": 268, "model": "dasa.diplomaticletterlocation", "fields": {"city": "Pulicat", "reference": "", "region": "India/Ceylon", "city_alternative_name2": "", "longitude": 80.314221, "continent": "South Asia", "region_altenative_name": "", "place": "Fort Pulicat", "latitude": 13.415938, "exact": "Y", "city_alternative_name3": "", "city_alternative_name": ""}}, {"pk": 269, "model": "dasa.diplomaticletterlocation", "fields": {"city": "Quintang", "reference": "(likely Qingyuan in Guangdong) Paul van Dyke", "region": "China", "city_alternative_name2": "", "longitude": 113.033806, "continent": "East Asia", "region_altenative_name": "", "place": "", "latitude": 23.712684, "exact": "N", "city_alternative_name3": "", "city_alternative_name": "Qingyuan"}}, {"pk": 270, "model": "dasa.diplomaticletterlocation", "fields": {"city": "Raijua", "reference": "", "region": "West- and East Nusa Tenggara", "city_alternative_name2": "", "longitude": 121.571249, "continent": "South East Asia", "region_altenative_name": "Savu", "place": "", "latitude": -10.612977, "exact": "N", "city_alternative_name3": "", "city_alternative_name": ""}},